COURT_TYPE,SPORT_TYPE,NAME,PARK_NAME,ADDRESS,LATITUDE,LONGITUDE,FIELD_SIZE,LIGHTS,ACCESSIBLE,WARD
"Ball Diamond","ball_diamond","Ball Diamond - Softball","Navan Centennial Park","3591 Wickham Court","45.42001522001903","-75.4232109262157","","yes/oui","no/non",""
"Ball Diamond","ball_diamond","T-Ball","Princess Louise Park","550 Princess Louise Drive, Cumberland","45.48234842477214","-75.49454836356303","","no/non","no/non",""
"Ball Diamond","ball_diamond","Ball Diamond","Four Seasons Park","4386 Spratt Road, Gloucester","45.275328359583234","-75.69074910203531","","no/non","no/non",""
"Ball Diamond","ball_diamond","Ball Diamond","Frank J. Licari Park","1990 Cochrane Street / 1274 Vancouver Avenue, Ottawa","45.36821842729785","-75.65806152437871","","no/non","no/non",""
"Ball Diamond","ball_diamond","Ball Diamond 03","Carlington Park","937 Clyde Avenue, Ottawa","45.375526537197054","-75.7437911538622","","yes/oui","no/non",""
"Ball Diamond","ball_diamond","Ball Diamond - Baseball","Gardenway Park","2001 Gardenway Drive, Cumberland","45.46632138886186","-75.48283627351744","","no/non","no/non",""
"Ball Diamond","ball_diamond","Graham Ball Softball Diamond","Graham Ball Softball Diamond","89 Castlefrank Road, Kanata","45.29343737969493","-75.88292135819239","","yes/oui","no/non",""
"Ball Diamond","ball_diamond","Ball Diamond","Trèva Cousineau Park","1756 Grey Nuns Drive, Gloucester","45.46913084366872","-75.53510131496292","","no/non","no/non",""
"Ball Diamond","ball_diamond","Ball Diamond 02","Harkness Park","6020 Piperville Road, Gloucester","45.3649117680252","-75.46321068248722","","no/non","no/non",""
"Ball Diamond","ball_diamond","Ball Diamond 03 (Minors)","Andy Shields Park","1448 Meadow Drive","45.25785607267269","-75.563677043951","","yes/oui","no/non",""
"Ball Diamond","ball_diamond","#3 Baseball","Brewer Park","100 Brewer Way, Ottawa","45.38655545940983","-75.68892639067943","","yes/oui","no/non",""
"Ball Diamond","ball_diamond","Ball Diamond 02","Dumaurier Park","2850 Dumaurier Avenue, Ottawa","45.35050782815319","-75.79269095353978","","yes/oui","no/non",""
"Ball Diamond","ball_diamond","Ball Diamond A - Baseball North","Tauvette Park","2436 Innes Road, Gloucester","45.42791999299958","-75.57304979253765","","no/non","no/non",""
"Ball Diamond","ball_diamond","Ball Diamond","Blackburn Park","180 - 190 Glen Park Drive, Gloucester","45.42988039603794","-75.56211100193305","","yes/oui","no/non",""
"Ball Diamond","ball_diamond","Ball Diamond 01 - Minor Baseball","Britannia Park","2805 Carling Avenue","45.35885962943428","-75.798265402323","","no/non","no/non",""
"Ball Diamond","ball_diamond","Ball Diamond 02","Britannia Park","2805 Carling Avenue","45.360011773119695","-75.79722988375225","","yes/oui","no/non",""
"Ball Diamond","ball_diamond","#1 Softball","Brewer Park","100 Brewer Way, Ottawa","45.38592299769327","-75.68989783691251","","yes/oui","no/non",""
"Ball Diamond","ball_diamond","Ball Diamond","Elizabeth Manley Park","1161 Blohm Drive, Ottawa","45.36997909825685","-75.61860733923375","","no/non","no/non",""
"Ball Diamond","ball_diamond","Ball Diamond","Fallingbrook Park","681 Deancourt Crescent, Cumberland","45.48152327017951","-75.48915715762304","","yes/oui","no/non",""
"Ball Diamond","ball_diamond","Ball Diamond","Russell Boyd Park","1735 St. Bernard Street, Gloucester","45.352699028662215","-75.62579361716496","","no/non","no/non",""
"Ball Diamond","ball_diamond","Ball Diamond 01","Pauline Vanier Park","1015 Harkness Avenue, Ottawa","45.3676812009746","-75.67705341326476","","no/non","no/non",""
"Ball Diamond","ball_diamond","Ball Diamond","Riverview Park","256 Knox Crescent, Ottawa","45.40515771908581","-75.65578866813226","","no/non","no/non",""
"Ball Diamond","ball_diamond","Hamilton Yards Baseball Diamond","Nepean Sportsplex Park","1701 Woodroffe Avenue, Nepean","45.32621282383218","-75.74360732262247","","yes/oui","no/non",""
"Ball Diamond","ball_diamond","Ball Diamond 02","Ottawa Business Park","3035 Conroy Road, Ottawa","45.3824928682629","-75.61805077632137","","no/non","no/non",""
"Ball Diamond","ball_diamond","Ball Diamond 01","Ottawa Business Park","3035 Conroy Road, Ottawa","45.38223230982391","-75.62084612417809","","no/non","no/non",""
"Ball Diamond","ball_diamond","Ball Diamond","Windsor Park Gloucester","3560 Wyman Place, Gloucester","45.34485013298827","-75.65906735003603","","no/non","no/non",""
"Ball Diamond","ball_diamond","Ball Diamond - Grassy Area","Trend Park","36 Canfield Road, Nepean","45.327728307234715","-75.78677883522778","","no/non","no/non",""
"Ball Diamond","ball_diamond","T-Ball","Alcide Trudeau Park (Vars)","5715 Rockdale Road, Cumberland","45.35564990141753","-75.35138536500426","","no/non","no/non",""
"Ball Diamond","ball_diamond","Ball Diamond","Bayshore Park","175 Woodridge Crescent, Nepean","45.34969799361698","-75.80918296663576","","no/non","no/non",""
"Ball Diamond","ball_diamond","T-Ball","Bel-Air Park","2149 Berwick Avenue, Ottawa","45.35768417380258","-75.76319177620256","","no/non","no/non",""
"Ball Diamond","ball_diamond","Ball Diamond (Youth)","Eastvale Park","740 Eastvale Drive, Gloucester","45.45958603086227","-75.59707818847208","","no/non","no/non",""
"Ball Diamond","ball_diamond","Ball Diamond 01","Dumaurier Park","2850 Dumaurier Avenue, Ottawa","45.35176837086974","-75.79156817352066","","yes/oui","no/non",""
"Ball Diamond","ball_diamond","Ball Diamond 02 - Baseball","Alexander Grove Park","10 Warner Colpitts Lane, Goulbourn","45.26002797385196","-75.92781495377378","","no/non","no/non",""
"Ball Diamond","ball_diamond","T-Ball","Echo Park","6698 Marina Drive, Rideau","45.16889635989088","-75.63929396458201","","no/non","no/non",""
"Ball Diamond","ball_diamond","Ball Diamond","Alfred Taylor Recreation Facility - North Gower","2300 Community Way, Rideau","45.131241191472334","-75.70956273372798","","yes/oui","no/non",""
"Ball Diamond","ball_diamond","Ball Diamond","Alta Vista Park","1309 Randall Avenue, Ottawa","45.384336254584255","-75.6662708890954","","no/non","no/non",""
"Ball Diamond","ball_diamond","Ball Diamond","Carrol Homestead Community Park / Corkery Community Centre","3447 Old Almonte Road, West Carleton","45.26065000261656","-76.06141666713069","","no/non","no/non",""
"Ball Diamond","ball_diamond","Ball Diamond 02 (Women/Minor)","Andy Shields Park","1448 Meadow Drive","45.25719882636024","-75.56528421174099","","no/non","no/non",""
"Ball Diamond","ball_diamond","Ball Diamond - Baseball","Appleford Park","1879 Appleford Street, Gloucester","45.439939583896134","-75.598593947292","","no/non","no/non",""
"Ball Diamond","ball_diamond","Ball Diamond 01","Andy Shields Park","1448 Meadow Drive","45.257091956450616","-75.56562943071138","","yes/oui","no/non",""
"Ball Diamond","ball_diamond","Ball Diamond","Kemp Park","11 Robert Kemp Street, Gloucester","45.33701053261916","-75.60601036281922","","no/non","no/non",""
"Ball Diamond","ball_diamond","Ball Diamond - Lower Field Softball","Wilfred Murray Park / R.J. Kennedy Community Hall and Arena","1115 Dunning Road, Cumberland","45.5149623925225","-75.40128938684636","","no/non","no/non",""
"Ball Diamond","ball_diamond","Ball Diamond 04 - Baseball","Pinecrest Recreation Complex and Park","2250 Torquay Avenue, Ottawa","45.3501331985528","-75.77376058577593","","no/non","no/non",""
"Ball Diamond","ball_diamond","Ball Diamond 02 - Softball","Pinecrest Recreation Complex and Park","2250 Torquay Avenue, Ottawa","45.34870458119912","-75.77276130883703","","no/non","no/non",""
"Ball Diamond","ball_diamond","Ball Diamond","Grovehurst Park","100 Grovehurst Drive, Nepean","45.27719089525303","-75.71184964232042","","yes/oui","no/non",""
"Ball Diamond","ball_diamond","Ball Diamond","Don Boudria Park","655 Décoeur Drive","45.444432310421846","-75.49043129029279","","no/non","no/non",""
"Ball Diamond","ball_diamond","Ball Diamond 01","Hampton Park","645 Parkview Road, Ottawa","45.3864426408847","-75.73828962941546","","yes/oui","no/non",""
"Ball Diamond","ball_diamond","Ball Diamond 01","Harkness Park","6020 Piperville Road, Gloucester","45.365059928188664","-75.46378331536171","","yes/oui","no/non",""
"Ball Diamond","ball_diamond","Ball Diamond","Dunrobin Community Centre","1151 Thomas A. Dolan Parkway, West Carleton","45.42235641063821","-76.0250865988634","","no/non","no/non",""
"Ball Diamond","ball_diamond","Ball Diamond","Hawthorne Park","2139 Tawney Road, Ottawa","45.39414488269947","-75.61496796937035","","no/non","no/non",""
"Ball Diamond","ball_diamond","Ball Diamond","Huntley Community Centre","108 Juanita Avenue, West Carleton","45.34992691658796","-76.03761991167374","","yes/oui","no/non",""
"Ball Diamond","ball_diamond","Clarence Mussell Ball Diamond 01","Osgoode Community Centre","5660 Osgoode Main Street, Osgoode","45.14848331066978","-75.60030293642451","","yes/oui","no/non",""
"Ball Diamond","ball_diamond","Ball Diamond 01","Carlington Park","937 Clyde Avenue, Ottawa","45.37514465039932","-75.74609276158763","","yes/oui","no/non",""
"Ball Diamond","ball_diamond","Ball Diamond","Carson Grove Park","1423 Matheson Road, Gloucester","45.437445188842084","-75.62215729977689","","no/non","no/non",""
"Ball Diamond","ball_diamond","Ball Diamond","Sharel Park","1900 Florida Avenue, Ottawa","45.38195018851901","-75.63820464051904","","no/non","no/non",""
"Ball Diamond","ball_diamond","Ball Diamond","New Edinburgh Park","203 Stanley Avenue, Ottawa","45.438700656119394","-75.6859575395138","","no/non","no/non",""
"Ball Diamond","ball_diamond","Ball Diamond","Vernon Recreation Centre","7950 Lawrence Street, Osgoode","45.16286993514818","-75.45407087424026","","yes/oui","no/non",""
"Ball Diamond","ball_diamond","Ball Diamond","Ludger Landry Park","4825 Piperville Road, Gloucester","45.344982929556984","-75.51846814689141","","no/non","no/non",""
"Ball Diamond","ball_diamond","Ball Diamond - Softball","Clarke Fields Park","93 Houlahan Street, Nepean","45.261729564427256","-75.77021925265278","","yes/oui","no/non",""
"Ball Diamond","ball_diamond","Ball Diamond - Softball","Stonecrest Park","220 Stoneway Drive","45.28657517587313","-75.71784608728474","","no/non","no/non",""
"Ball Diamond","ball_diamond","Ball Diamond","Utman Park","280 Mountshannon Drive, Nepean","45.28608161049932","-75.74129761748307","","no/non","no/non",""
"Ball Diamond","ball_diamond","Ball Diamond 01","Richmond Lions Community Park","3302 Huntley Road, Goulbourn","45.19781500704935","-75.84379440684756","","yes/oui","no/non",""
"Ball Diamond","ball_diamond","Ball Diamond - T-Ball","Gardenway Park","2001 Gardenway Drive, Cumberland","45.46559605346973","-75.4829930888233","","no/non","no/non",""
"Ball Diamond","ball_diamond","Ball Diamond","Ralph Street Park","12 Ralphpark Street, Goulbourn","45.257944508473464","-75.91680168834054","","no/non","no/non",""
"Ball Diamond","ball_diamond","T-Ball","Village Green Park","270 Springfield Road, Rockcliffe Park","45.44957430940027","-75.67685171094078","","no/non","no/non",""
"Ball Diamond","ball_diamond","Ball Diamond","Sawmill Creek Pool Park","3380 D'Aoust Avenue, Gloucester","45.34970700502263","-75.63555450442966","","no/non","no/non",""
"Ball Diamond","ball_diamond","T-Ball","Kinsella Park","1600 Prestwick Drive, Cumberland","45.46869613445844","-75.499220504949","","no/non","no/non",""
"Ball Diamond","ball_diamond","Ball Diamond - Baseball","Yves Richer Park","499 des Épinettes Avenue, Cumberland","45.46263223053578","-75.49677895766861","","no/non","no/non",""
"Ball Diamond","ball_diamond","T-Ball","Yves Richer Park","499 des Épinettes Avenue, Cumberland","45.46246666941582","-75.4958166670649","","no/non","no/non",""
"Ball Diamond","ball_diamond","Ball Diamond - North","Garneau Park","1567 Champneuf Drive, Gloucester","45.4653462674157","-75.52351409253843","","no/non","no/non",""
"Ball Diamond","ball_diamond","Ball Diamond","Roy Park","6210 Meadowglen Drive, Gloucester","45.448999622255094","-75.53105516817594","","no/non","no/non",""
"Ball Diamond","ball_diamond","Ball Diamond","Queenswood Heights Centennial Park and Community Centre","1485 Duford Drive, Cumberland","45.470418400661124","-75.50716194533557","","no/non","no/non",""
"Ball Diamond","ball_diamond","T-Ball","Davidson Park","5 Ryerson Avenue, Nepean","45.26590558108274","-75.71414635512585","","no/non","no/non",""
"Ball Diamond","ball_diamond","Ball Diamond","Chapel Hill Park","1556 Forest Valley Drive, Gloucester","45.45073523701109","-75.53903857605597","","no/non","no/non",""
"Ball Diamond","ball_diamond","Ball Diamond","Des Pionniers Park","1880 Carrigan Drive, Cumberland","45.471746117391376","-75.48159268895724","","no/non","no/non",""
"Ball Diamond","ball_diamond","Ball Diamond 02 - Baseball","Sylvia Holden Park","641 O'Connor Street, Ottawa","45.40245524670467","-75.68153526182917","","yes/oui","no/non",""
"Ball Diamond","ball_diamond","Ball Diamond - Softball","Trend-Arlington Park","50 Bellman Drive, Nepean","45.326713078785254","-75.78464269807601","","yes/oui","no/non",""
"Ball Diamond","ball_diamond","Ball Diamond","Queenswood Ridge Park","346 Kennedy Lane East","45.476929233755826","-75.50241082406983","","yes/oui","no/non",""
"Ball Diamond","ball_diamond","Ball Diamond","Westwood Park","2000 Saville Row, Ottawa","45.37767883294802","-75.7673819903032","","no/non","no/non",""
"Ball Diamond","ball_diamond","Brian Kearns Ball Diamond 01","Fisher Park","250 Holland Avenue, Ottawa","45.39598826059655","-75.73164299103497","","no/non","no/non",""
"Ball Diamond","ball_diamond","Ball Diamond","Pickford Park","50 Pickford Drive","45.308423368187974","-75.88222531206922","","no/non","no/non",""
"Ball Diamond","ball_diamond","Ball Diamond","Fairmile View Park","2429 Fairmile Road, Rideau","45.06813055754899","-75.65060218465227","","no/non","no/non",""
"Ball Diamond","ball_diamond","Hanlon Baseball Diamond","Whitehaven / George C. Brown Park","970 Parkhaven Avenue, Ottawa","45.361354526383934","-75.7773330985243","","no/non","no/non",""
"Ball Diamond","ball_diamond","Aurèle G. Morin Baseball Diamond #2","Riverain Park","400 North River Road, Vanier","45.43025136173892","-75.66992221104366","","yes/oui","no/non",""
"Ball Diamond","ball_diamond","Ball Diamond (T-Ball)","Rabbi Bulka Kindness Park","2330 Virginia Drive, Ottawa","45.38491478635999","-75.64572412335204","","no/non","no/non",""
"Ball Diamond","ball_diamond","T-Ball","Joella Park","5565 Joella Crescent, Osgoode","45.1399458453319","-75.60469271935035","","no/non","no/non",""
"Ball Diamond","ball_diamond","Ball Diamond","Stanstead Park","861 Stanstead Road, Ottawa","45.36312513347363","-75.67259458582618","","no/non","no/non",""
"Ball Diamond","ball_diamond","T-Ball","Pauline Vanier Park","1015 Harkness Avenue, Ottawa","45.36692964532873","-75.67686674424705","","no/non","no/non",""
"Ball Diamond","ball_diamond","T-Ball","Yves Chénier Park","3585 Sarsfield Road, Cumberland","45.43975400555315","-75.34173294122525","","no/non","no/non",""
"Ball Diamond","ball_diamond","Ball Diamond - Upper Field Baseball","Wilfred Murray Park / R.J. Kennedy Community Hall and Arena","1115 Dunning Road, Cumberland","45.51429218913133","-75.40246678623139","","no/non","no/non",""
"Ball Diamond","ball_diamond","Ball Diamond - Softball","Tanglewood Park","30 Woodfield Drive, Nepean","45.335709902520776","-75.731037169004","","no/non","no/non",""
"Ball Diamond","ball_diamond","Ball Diamond 01 - T-Ball","Pinecrest Recreation Complex and Park","2250 Torquay Avenue, Ottawa","45.34830000192112","-75.77338333288247","","no/non","no/non",""
"Ball Diamond","ball_diamond","T-Ball Diamond","Harry Craig Centre","6047 Prince of Wales Drive, Rideau","45.17478994513166","-75.71514365487282","","no/non","no/non",""
"Ball Diamond","ball_diamond","Ball Diamond","Aladdin Park","3939 Albion Road","45.341766460966056","-75.63376896625856","","no/non","no/non",""
"Ball Diamond","ball_diamond","Ball Diamond","Shearer Park","89 Kakulu Road, Kanata","45.306520448676345","-75.89174091704056","","no/non","no/non",""
"Ball Diamond","ball_diamond","T-Ball Diamond","Whitehaven / George C. Brown Park","970 Parkhaven Avenue, Ottawa","45.36190026239908","-75.77636200083754","","no/non","no/non",""
"Ball Diamond","ball_diamond","Ball Diamond - (Youth)","Palmerston Park","1326 Ogilvie Road, Gloucester","45.42942146458724","-75.6223500333211","","no/non","no/non",""
"Ball Diamond","ball_diamond","Ball Diamond","Williams Park","34 Tanglewood Drive, Nepean","45.31940329362067","-75.82715737871527","","no/non","no/non",""
"Ball Diamond","ball_diamond","Ball Diamond 06 - Minor Baseball","Pinecrest Recreation Complex and Park","2250 Torquay Avenue, Ottawa","45.35211782773018","-75.77492021019643","","no/non","no/non",""
"Ball Diamond","ball_diamond","Ball Diamond","Connaught Park","993 Connaught Avenue, Ottawa","45.35904248487069","-75.77979548312601","","no/non","no/non",""
"Ball Diamond","ball_diamond","Jays Care Field","Notre-Dame-des-Champs Park","3659 Navan Road, Gloucester","45.4276233031948","-75.49252719549625","","yes/oui","yes/oui",""
"Ball Diamond","ball_diamond","Ball Diamond","Vanessa Gilles Park","1465 Ridgebrook Drive, Gloucester","45.42303028048036","-75.60390562358326","","no/non","no/non",""
"Ball Diamond","ball_diamond","Ball Diamond","Olmstead Park","26 Viewmount Drive, Nepean","45.342554193321774","-75.74601424613685","","no/non","no/non",""
"Ball Diamond","ball_diamond","T-Ball","Kingsmere Park","2074 Benjamin Avenue, Ottawa","45.36576666894328","-75.76265000045808","","no/non","no/non",""
"Ball Diamond","ball_diamond","Ball Diamond","Scala Park","797 Scala Avenue, Cumberland","45.462741248259334","-75.46918949082759","","no/non","no/non",""
"Ball Diamond","ball_diamond","Ball Diamond","Weybridge Park","75 Flanders Street, Nepean","45.26958734587331","-75.76849744815443","","no/non","no/non",""
"Ball Diamond","ball_diamond","Ball Diamond - Softball","Rooney Park","15 Steeple Hill Crescent, Nepean","45.268110637417934","-75.82565639538514","","no/non","no/non",""
"Ball Diamond","ball_diamond","Ball Diamond","Walkley Albion Park","2930 Albion Road North","45.373463213512586","-75.65478413694726","","no/non","no/non",""
"Ball Diamond","ball_diamond","West Baseball Diamond","Walter Baker Park","100 Charlie Rogers Place","45.29360427126293","-75.89998888326335","","yes/oui","no/non",""
"Ball Diamond","ball_diamond","Ball Diamond","Kars Community Park","1604 Old Wellington Street","45.150094401933664","-75.64865683439548","","yes/oui","no/non",""
"Ball Diamond","ball_diamond","Ball Diamond","Kars Community Park","1604 Old Wellington Street","45.14858900300969","-75.64892745456977","","yes/oui","no/non",""
"Ball Diamond","ball_diamond","Ball Diamond","Pierre Rocque Park","1257 Joseph-Drouin Avenue, Gloucester","45.47586857621295","-75.52452747662056","","yes/oui","no/non",""
"Ball Diamond","ball_diamond","West Softball Diamond","Walter Baker Park","100 Charlie Rogers Place","45.296600137602","-75.90728383308941","","no/non","no/non",""
"Ball Diamond","ball_diamond","Scott ToKessey Baseball Diamond","Walter Baker Park","100 Charlie Rogers Place","45.29811467534246","-75.90501511448316","","no/non","no/non",""
"Ball Diamond","ball_diamond","Ball Diamond","Woodroffe Park","180 Lockhart Avenue, Ottawa","45.37643872936283","-75.77284201438047","","no/non","no/non",""
"Ball Diamond","ball_diamond","Ball Diamond","Presland Park","368 Presland Road, Ottawa","45.42263671741971","-75.64928680224298","","no/non","no/non",""
"Ball Diamond","ball_diamond","Aurèle G. Morin Baseball Diamond #1","Riverain Park","400 North River Road, Vanier","45.428770040713985","-75.66939926937741","","yes/oui","no/non",""
"Ball Diamond","ball_diamond","Ball Diamond","Ashton Park and Cavanagh Community Centre","8930 Flewellyn Road, Goulbourn","45.157671746383606","-76.02965299326907","","yes/oui","no/non",""
"Ball Diamond","ball_diamond","Ball Diamond","Carleton Heights Park","1665 Apeldoorn Avenue, Ottawa","45.358670913197614","-75.70233539200851","","no/non","no/non",""
"Ball Diamond","ball_diamond","#1 - North (Clay Wheaton Softball Diamond)","Deevy Pines Park","65 Stonehaven Drive, Kanata","45.28927057581088","-75.8562849607487","","yes/oui","no/non",""
"Ball Diamond","ball_diamond","#2 - South","Deevy Pines Park","65 Stonehaven Drive, Kanata","45.28786561733733","-75.8564531918452","","yes/oui","no/non",""
"Ball Diamond","ball_diamond","Raymond Chabot Grant Thornton Park","Raymond Chabot Grant Thorton Park","300 Coventry Road, Ottawa","45.420062223588744","-75.65364535793293","","yes/oui","no/non",""
"Ball Diamond","ball_diamond","Ball Diamond","Whalen Park","4111 Kanata Avenue, Kanata","45.321804813743405","-75.92327190029414","","yes/oui","no/non",""
"Ball Diamond","ball_diamond","Kinsmen Baseball Diamond","Walter Baker Park","100 Charlie Rogers Place","45.29374676314562","-75.89840856611721","","yes/oui","no/non",""
"Ball Diamond","ball_diamond","Ball Diamond","Ruth Wildgen Park","1099 Grenon Avenue, Ottawa","45.35116117734903","-75.79534799228377","","no/non","no/non",""
"Ball Diamond","ball_diamond","Clarence Mussell Ball Diamond 02","Osgoode Community Centre","5660 Osgoode Main Street, Osgoode","45.14743363971791","-75.60105036258867","","yes/oui","no/non",""
"Ball Diamond","ball_diamond","Ball Diamond","Morrison Park","1095 Morrison Drive, Ottawa","45.34477577268338","-75.79410056293415","","no/non","no/non",""
"Ball Diamond","ball_diamond","Ball Diamond","Bluegrass Park","59 Bluegrass Drive","45.28552628190742","-75.85980723880806","","yes/oui","no/non",""
"Ball Diamond","ball_diamond","Ball Diamond C - Softball South","Tauvette Park","2436 Innes Road, Gloucester","45.425754332267665","-75.5724070263923","","no/non","no/non",""
"Ball Diamond","ball_diamond","Ball Diamond B - Softball Central","Tauvette Park","2436 Innes Road, Gloucester","45.42714199946901","-75.57246227727384","","no/non","no/non",""
"Ball Diamond","ball_diamond","Ball Diamond 02 - North","Canterbury Park","2185 Arch Street, Ottawa","45.39122604588014","-75.6278874535483","","no/non","no/non",""
"Ball Diamond","ball_diamond","Ball Diamond","Calzavara Family Park","1602 Blohm Drive, Ottawa","45.37470755035069","-75.60730020971825","","no/non","no/non",""
"Ball Diamond","ball_diamond","Ball Diamond","CARDELREC Recreation Complex (Goulbourn)","1500 Shea Road, Goulbourn","45.261481601198724","-75.9072994431141","","no/non","no/non",""
"Ball Diamond","ball_diamond","Ball Diamond 02","R. George Pushman Park","1270 Pebble Road, Ottawa","45.35963412678044","-75.64887282801735","","no/non","no/non",""
"Ball Diamond","ball_diamond","Ball Diamond","Sheffield Glen Park","2320 Southvale Crescent, Ottawa","45.39788025871345","-75.61452028047381","","no/non","no/non",""
"Ball Diamond","ball_diamond","Ball Diamond","Playfair Park","1801 Playfair Drive, Ottawa","45.39153111661973","-75.64580931867526","","no/non","no/non",""
"Ball Diamond","ball_diamond","Ball Diamond","Bearbrook Park and Pool","99 Bearbrook Road, Gloucester","45.43466408629629","-75.56503815240487","","no/non","no/non",""
"Ball Diamond","ball_diamond","Ball Diamond - Softball","Barry Mullen Park","152 Grandview Road, Nepean","45.360056854113765","-75.8560912651088","","no/non","no/non",""
"Ball Diamond","ball_diamond","Ball Diamond","Ainsley Park","1650 Ainsley Drive","45.358473349808605","-75.74896635450223","","no/non","no/non",""
"Ball Diamond","ball_diamond","Ball Diamond 01 - Baseball","Sylvia Holden Park","641 O'Connor Street, Ottawa","45.40149146744999","-75.68228297725084","","yes/oui","no/non",""
"Ball Diamond","ball_diamond","Brian Kearns Ball Diamond 02 - T-Ball","Fisher Park","250 Holland Avenue, Ottawa","45.39683054778226","-75.73213085977758","","no/non","no/non",""
"Ball Diamond","ball_diamond","Ball Diamond 02 - North","Fitzroy Harbour Community Centre and Campbell Bicentennial Park","100 Clifford Campbell Street, West Carleton","45.47013740389416","-76.20719474053327","","yes/oui","no/non",""
"Ball Diamond","ball_diamond","Ball Diamond","Fisher Heights Park","31 Sutton Place, Nepean","45.365506579996136","-75.7207167031825","","no/non","no/non",""
"Ball Diamond","ball_diamond","Ball Diamond","Ryan Farm Park","5 Parkglen Drive, Nepean","45.34812160749925","-75.75301749232891","","no/non","no/non",""
"Ball Diamond","ball_diamond","T-Ball","Navan Centennial Park","3591 Wickham Court","45.41923769638163","-75.42398357617473","","no/non","no/non",""
"Ball Diamond","ball_diamond","Ball Diamond 05 - Minor Baseball","Pinecrest Recreation Complex and Park","2250 Torquay Avenue, Ottawa","45.35051919420491","-75.77603211610901","","no/non","no/non",""
"Ball Diamond","ball_diamond","Ball Diamond 03 - Softball","Pinecrest Recreation Complex and Park","2250 Torquay Avenue, Ottawa","45.34900302835325","-75.77414534948348","","no/non","no/non",""
"Ball Diamond","ball_diamond","Ball Diamond 01 - South","Fitzroy Harbour Community Centre and Campbell Bicentennial Park","100 Clifford Campbell Street, West Carleton","45.46978472151167","-76.20635609494359","","yes/oui","no/non",""
"Ball Diamond","ball_diamond","Ball Diamond","Linton Park","1000 Walkley Road, Ottawa","45.364642435120835","-75.66765372240611","","no/non","no/non",""
"Ball Diamond","ball_diamond","Mike Channing Softball Diamond","Walter Baker Park","100 Charlie Rogers Place","45.297916888621636","-75.90420875344647","","no/non","no/non",""
"Ball Diamond","ball_diamond","Ball Diamond 01 - Baseball","Alexander Grove Park","10 Warner Colpitts Lane, Goulbourn","45.26017407142934","-75.92603231626272","","yes/oui","no/non",""
"Ball Diamond","ball_diamond","Ball Diamond","François Dupont Park","755 Champlain Street, Cumberland","45.488167039501974","-75.52219928055936","","no/non","no/non",""
"Ball Diamond","ball_diamond","Ball Diamond","Bayshore Park","175 Woodridge Crescent, Nepean","45.350978082433194","-75.80936237726598","","no/non","no/non",""
"Ball Diamond","ball_diamond","Ball Diamond","Kaladar Park","2554 Kaladar Avenue, Ottawa","45.37349747894023","-75.67208361241445","","no/non","no/non",""
"Ball Diamond","ball_diamond","Bill and Marion Atwell Baseball Diamond - East","Grasshopper Hill/Kilborn Park","1609 Kilborn Avenue","45.38794519583377","-75.65331621790779","","no/non","no/non",""
"Ball Diamond","ball_diamond","Ball Diamond","Kinburn Community Centre","3045 Kinburn Side Road, West Carleton","45.39328094262673","-76.18866173624716","","yes/oui","no/non",""
"Ball Diamond","ball_diamond","Ball Diamond","Ledbury Park and Pavilion","1250 Ledbury Avenue, Ottawa","45.36543801987214","-75.65586568788808","","no/non","no/non",""
"Ball Diamond","ball_diamond","Baseball West - Eagles Nest 1","Ken Ross Park","600 Longfields Drive, Nepean","45.284004428258996","-75.74354699985282","","no/non","no/non",""
"Ball Diamond","ball_diamond","Southgate Baseball Diamond","Bruff Park","250 Lorry Greenberg Drive, Ottawa","45.361796273503685","-75.63286442654783","","yes/oui","no/non",""
"Ball Diamond","ball_diamond","Ball Diamond","Houlahan Park and West Houlahan Park","44 Tartan Drive, Nepean","45.267320798928594","-75.76052259852413","","no/non","no/non",""
"Ball Diamond","ball_diamond","Ball Diamond","Huntsman Park","38 A Huntsman Crescent, Kanata","45.280426584982045","-75.86074031350377","","no/non","no/non",""
"Ball Diamond","ball_diamond","Ball Diamond","Huntley Community Centre","108 Juanita Avenue, West Carleton","45.350464266053145","-76.03840450293784","","yes/oui","no/non",""
"Ball Diamond","ball_diamond","Ball Diamond","Hutton Park","1830 Hutton Avenue, Ottawa","45.40141107855169","-75.63016267416057","","no/non","no/non",""
"Ball Diamond","ball_diamond","Ball Diamond","Inverness Park","76 Inverness Avenue, Nepean","45.35940650233374","-75.72206772086079","","no/non","no/non",""
"Ball Diamond","ball_diamond","Ball Diamond","J.J. Clarke Park","75 Bridlewood Drive, Kanata","45.29352180979061","-75.86458667407324","","no/non","no/non",""
"Ball Diamond","ball_diamond","Ball Diamond - Baseball","Jasmine Park","2040 Jasmine Crescent, Gloucester","45.44068691528935","-75.59304670488551","","yes/oui","no/non",""
"Ball Diamond","ball_diamond","Ball Diamond","Constance Buckham's Bay Community Centre Park","262 Len Purcell Drive, West Carleton","45.49889097199565","-76.09360671196887","","yes/oui","no/non",""
"Ball Diamond","ball_diamond","Ball Diamond - Baseball","Joe Jamieson Park","6940 Bilberry Drive, Gloucester","45.48013546784056","-75.52363423861443","","no/non","no/non",""
"Ball Diamond","ball_diamond","Greely West Ball Diamond","Greely West Park","6485 Greely West Drive, Osgoode","45.249767763713756","-75.5990827511808","","no/non","no/non",""
"Ball Diamond","ball_diamond","Ball Diamond","Champlain Park","140 Carleton Avenue, Ottawa","45.40544324509518","-75.74557887763441","","no/non","no/non",""
"Ball Diamond","ball_diamond","Ball Diamond","Grassy Plains Park","85 Grassy Plains Drive, Kanata","45.27714612376375","-75.852210348147","","no/non","no/non",""
"Ball Diamond","ball_diamond","Ball Diamond","Greenboro Park and Community Centre","363 Lorry Greenberg Drive","45.361502507770666","-75.63874429803607","","yes/oui","no/non",""
"Ball Diamond","ball_diamond","Ball Diamond - Baseball West","Grenfell Glen Park","53 Avonlea Road, Nepean","45.31493672100017","-75.73210425437381","","no/non","no/non",""
"Ball Diamond","ball_diamond","Ball Diamond","Bellevue Manor Park","1520 Caldwell Avenue, Ottawa","45.37238132618123","-75.74161974525911","","no/non","no/non",""
"Ball Diamond","ball_diamond","Ball Diamond 01 - South","Canterbury Park","2185 Arch Street, Ottawa","45.39015846638204","-75.62821073206622","","no/non","no/non",""
"Ball Diamond","ball_diamond","Ball Diamond - Baseball","Craig Henry Park","135 Craig Henry Drive, Nepean","45.333606638824115","-75.77724616945257","","no/non","no/non",""
"Ball Diamond","ball_diamond","Ball Diamond","Crossing Bridge Park","27 Hobin Street, Goulbourn","45.26292548451724","-75.9341752523608","","no/non","no/non",""
"Ball Diamond","ball_diamond","Ball Diamond 01 - North","Frank Ryan Park","950 Alpine Avenue, Ottawa","45.35640666694532","-75.7903808324804","","no/non","no/non",""
"Ball Diamond","ball_diamond","Ball Diamond 02 - South","Frank Ryan Park","950 Alpine Avenue, Ottawa","45.35573962718367","-75.79004608966282","","no/non","no/non",""
"Ball Diamond","ball_diamond","Ball Diamond","Cattail Creek Park","38 Chimo Drive, Kanata","45.310697879715704","-75.88939527569654","","no/non","no/non",""
"Ball Diamond","ball_diamond","Ball Diamond 02","Carlington Park","937 Clyde Avenue, Ottawa","45.37566596770384","-75.74444907278978","","yes/oui","no/non",""
"Ball Diamond","ball_diamond","Ball Diamond 02","Brantwood Park","39 Onslow Crescent, Ottawa","45.40650126797476","-75.6723902460485","","no/non","no/non",""
"Ball Diamond","ball_diamond","Ball Diamond 01","Brantwood Park","39 Onslow Crescent, Ottawa","45.40730006742107","-75.67309527891776","","no/non","no/non",""
"Ball Diamond","ball_diamond","Ball Diamond","George McLean Park","5348 McLean Crescent, Rideau","45.23446329748869","-75.69570236490125","","no/non","no/non",""
"Ball Diamond","ball_diamond","Ball Diamond 03 - T-Ball","Frank Ryan Park","950 Alpine Avenue, Ottawa","45.35711893367508","-75.78965534856538","","no/non","no/non",""
"Ball Diamond","ball_diamond","Ball Diamond - Softball (Minors Only)","Charing Park","37 Chartwell Avenue, Nepean","45.332201591721436","-75.76631236988767","","yes/oui","no/non",""
"Ball Diamond","ball_diamond","Hamilton Yards Softball Diamond","Nepean Sportsplex Park","1701 Woodroffe Avenue, Nepean","45.325139935664644","-75.74535746627306","","yes/oui","no/non",""
"Ball Diamond","ball_diamond","Ball Diamond","Mattawa Park","94 Steeple Chase Drive, Kanata","45.30054609261135","-75.85522158272605","","no/non","no/non",""
"Ball Diamond","ball_diamond","Ball Diamond","North Vineyard Park","6018 Voyageur Drive, Gloucester","45.47423404824769","-75.55144054888356","","no/non","no/non",""
"Ball Diamond","ball_diamond","Ball Diamond","Bella Vista Park","1541 Carino Crescent, Cumberland","45.51141375779283","-75.45930189888698","","no/non","no/non",""
"Ball Diamond","ball_diamond","Ball Diamond","Constance Buckham's Bay Community Centre Park","262 Len Purcell Drive, West Carleton","45.49900605047288","-76.093699511531","","no/non","no/non",""
"Ball Diamond","ball_diamond","Ball Diamond","Helen Redpath Thomson Park","861 Cummings Avenue, Ottawa","45.435411000924645","-75.63543725452215","","no/non","no/non",""
"Ball Diamond","ball_diamond","Ball Diamond","Diefenbunker Baseball Diamond","3911 Carp Road, West Carleton","45.352883460113254","-76.05179586854125","","no/non","no/non",""
"Ball Diamond","ball_diamond","Ronald Warren Ball Diamond","Kenmore Bicentennial Park","3151 Yorks Corners Road, Osgoode","45.23381859203042","-75.41647338102344","","yes/oui","no/non",""
"Ball Diamond","ball_diamond","Ball Diamond","Lawson Park","491 Lawson Avenue, Ottawa","45.426839603108746","-75.64528471243081","","no/non","no/non",""
"Ball Diamond","ball_diamond","Ball Diamond","Laurier Carrière Park","6601 Carrière Street, Gloucester","45.46654084499668","-75.52395781267809","","yes/oui","no/non",""
"Ball Diamond","ball_diamond","Ball Diamond 01","Laroche Park","51 Stonehurst Avenue, Ottawa","45.40763995201724","-75.72827896917924","","yes/oui","no/non",""
"Ball Diamond","ball_diamond","Ball Diamond 02","Laroche Park","51 Stonehurst Avenue, Ottawa","45.40901144922891","-75.72810461247079","","yes/oui","no/non",""
"Ball Diamond","ball_diamond","Ball Diamond","Larkin Park","76 Larkin Drive, Nepean","45.28243678234369","-75.76235058209241","","no/non","no/non",""
"Ball Diamond","ball_diamond","McAllister Ball Diamond","Leitrim Park","3290 Leitrim Road, Gloucester","45.330435364890434","-75.59500328408333","","no/non","no/non",""
"Ball Diamond","ball_diamond","Ball Diamond - Softball","Lexington Park","1404 Lexington Street, Ottawa","45.36960165350443","-75.71383255293587","","no/non","no/non",""
"Ball Diamond","ball_diamond","RItche Ball Diamond","Leitrim Park","3290 Leitrim Road, Gloucester","45.330314432901226","-75.59538853916935","","no/non","no/non",""
"Ball Diamond","ball_diamond","Ball Diamond (Minors)","Leslie Armstrong Park and Bearbrook Community Hall","8720 Russell Road, Cumberland","45.383505542517035","-75.33665497243494","","yes/oui","no/non",""
"Ball Diamond","ball_diamond","Crawford Ball Diamond","Leitrim Park","3290 Leitrim Road, Gloucester","45.33096651528781","-75.59594958108173","","yes/oui","no/non",""
"Ball Diamond","ball_diamond","Ball Diamond","Alcide Trudeau Park (Vars)","5715 Rockdale Road, Cumberland","45.356654422929154","-75.35107678561933","","yes/oui","no/non",""
"Ball Diamond","ball_diamond","Ball Diamond - Baseball","Louis Perrault Park","6250 Beauséjour Drive, Gloucester","45.457555033786164","-75.53075326866347","","no/non","no/non",""
"Ball Diamond","ball_diamond","Ball Diamond","Longleaf Park","5831 Gladewoods Place, Gloucester","45.440181536234114","-75.53226348936965","","no/non","no/non",""
"Ball Diamond","ball_diamond","Ball Diamond - Softball","Maki Park","19 Leeming Drive, Nepean","45.34917328604543","-75.83226580578358","","no/non","no/non",""
"Ball Diamond","ball_diamond","Ball Diamond - Softball South West","Manordale Park","60 Knoxdale Road, Nepean","45.32934498338396","-75.76064184089493","","no/non","no/non",""
"Ball Diamond","ball_diamond","Ball Diamond - Softball (Minors)","Lynwood Park","7 Sycamore Drive, Nepean","45.31903769114082","-75.81969795634384","","no/non","no/non",""
"Ball Diamond","ball_diamond","Ball Diamond - Baseball","Heritage Park","6160 Orléans Boulevard, Gloucester","45.453630637936804","-75.53598315783967","","yes/oui","no/non",""
"Ball Diamond","ball_diamond","Ball Diamond","Arnott Park","691 Hartman Crescent, Ottawa","45.36256084017765","-75.68065963619249","","no/non","no/non",""
"Ball Diamond","ball_diamond","Ball Diamond - Softball South East","Manordale Park","60 Knoxdale Road, Nepean","45.32988620376156","-75.75939105364279","","no/non","no/non",""
"Ball Diamond","ball_diamond","Ball Diamond - Softball North","Manordale Park","60 Knoxdale Road, Nepean","45.33028097620523","-75.76036533945047","","no/non","no/non",""
"Ball Diamond","ball_diamond","Ball Diamond Softball North","Lytle Park (Nepean)","4401 O’Keefe Court, Nepean","45.27671074546904","-75.79411008238121","","yes/oui","no/non",""
"Ball Diamond","ball_diamond","Carl Faulkner Ball Diamond","Lytle Park (Nepean)","4401 O’Keefe Court, Nepean","45.27460478651486","-75.79405703057547","","yes/oui","no/non",""
"Ball Diamond","ball_diamond","T-Ball","Marathon Park","210 Linda Loop, West Carleton","45.36040628882794","-76.12074825455471","","no/non","no/non",""
"Ball Diamond","ball_diamond","Ball Diamond","Marlborough Park","6836 Malakoff Road, Rideau","45.0898188579567","-75.75648638351095","","no/non","no/non",""
"Ball Diamond","ball_diamond","Ball Diamond","March Central Community Centre and Park","630 Cameron Harvey Drive, Kanata","45.376987699557795","-75.9546788208171","","yes/oui","no/non",""
"Ball Diamond","ball_diamond","Ball Diamond 02","McKendry Park","2567 Dow Street, Osgoode","45.238128049025654","-75.47847507228897","","yes/oui","no/non",""
"Ball Diamond","ball_diamond","Ball Diamond 01","McCarthy Park","3320 Paul Anka Drive","45.35206465422147","-75.67385435443454","","yes/oui","no/non",""
"Ball Diamond","ball_diamond","Ball Diamond","Meadowbrook Park (Gloucester)","1485 Meadowbrook Road, Gloucester","45.4216895547724","-75.61240751568907","","no/non","no/non",""
"Ball Diamond","ball_diamond","Ball Diamond - East","Medhurst Park","72 Medhurst Drive / 403 Woodfield Drive","45.33621023967282","-75.74363841690773","","no/non","no/non",""
"Ball Diamond","ball_diamond","Ball Diamond - West","Medhurst Park","72 Medhurst Drive / 403 Woodfield Drive","45.33551547886523","-75.74500685651262","","no/non","no/non",""
"Ball Diamond","ball_diamond","Ball Diamond","Moloughney Park","30 Wessex Road, Nepean","45.27318474287067","-75.75134611116579","","no/non","no/non",""
"Ball Diamond","ball_diamond","Ball Diamond - Softball West","Centrepointe Park","260 Centrepointe Drive","45.34173408063543","-75.7677882147629","","no/non","no/non",""
"Ball Diamond","ball_diamond","Ball Diamond 02","McCarthy Park","3320 Paul Anka Drive","45.3509746936048","-75.67395188991482","","no/non","no/non",""
"Ball Diamond","ball_diamond","Ball Diamond 01","McKendry Park","2567 Dow Street, Osgoode","45.23772644262433","-75.479558869018","","yes/oui","no/non",""
"Ball Diamond","ball_diamond","Ball Diamond 01","McKellar Park","539 Wavell Avenue, Ottawa","45.38294990783467","-75.76567870996436","","no/non","no/non",""
"Ball Diamond","ball_diamond","T-Ball","Merivale Gardens Park","25 Bie Street, Nepean","45.32221723320096","-75.73972867300843","","no/non","no/non",""
"Ball Diamond","ball_diamond","Ball Diamond 03","Britannia Park","2805 Carling Avenue","45.360822787470326","-75.79864032947816","","no/non","no/non",""
"Ball Diamond","ball_diamond","Ball Diamond","Bingham Park","145 Cathcart Street, Ottawa","45.43315620132697","-75.69634555594972","","yes/oui","no/non",""
"Ball Diamond","ball_diamond","Ball Diamond - Softball East","Centrepointe Park","260 Centrepointe Drive","45.34312121611263","-75.7660337044017","","no/non","no/non",""
"Ball Diamond","ball_diamond","Ball Diamond East","Bell Centennial Arena and Bell Arena Park","50 Cassidy Road, Nepean","45.32534037607584","-75.80770031612394","","yes/oui","no/non",""
"Ball Diamond","ball_diamond","Ball Diamond","Queensway Park","1580 Telesat Court, Gloucester","45.42819854096877","-75.60652771516776","","no/non","no/non",""
"Ball Diamond","ball_diamond","#2 Softball","Brewer Park","100 Brewer Way, Ottawa","45.387202084644635","-75.68993761700824","","yes/oui","no/non",""
"Ball Diamond","ball_diamond","Ball Diamond","Beaverbrook Park","2500 Campeau Drive, Kanata","45.320326529183475","-75.89753665591253","","yes/oui","no/non",""
"Ball Diamond","ball_diamond","Ball Diamond West","Bell Centennial Arena and Bell Arena Park","50 Cassidy Road, Nepean","45.324168000658666","-75.80896260989655","","yes/oui","no/non",""
"Ball Diamond","ball_diamond","East Diamond","Hope Cloutier Park","159 Old Colony Road, Kanata","45.293248969265576","-75.87609967409567","","no/non","no/non",""
"Ball Diamond","ball_diamond","Frank MacDonald Fastball Diamond","Clarence Maheral Park","183 Old Colony Road / 170 Castlefrank Road, Kanata","45.29138479436163","-75.87782254040266","","no/non","no/non",""
"Ball Diamond","ball_diamond","Ball Diamond - South","Garneau Park","1567 Champneuf Drive, Gloucester","45.464627569474764","-75.52311525223038","","no/non","no/non",""
"Ball Diamond","ball_diamond","Ball Diamond - Softball","General Burns Park","107 Chesterton Drive, Nepean","45.35234221837662","-75.72080909580778","","no/non","no/non",""
"Ball Diamond","ball_diamond","Ball Diamond 04","Carlington Park","937 Clyde Avenue, Ottawa","45.37572331093833","-75.74187858402844","","no/non","no/non",""
"Ball Diamond","ball_diamond","Ball Diamond","Combermere Park","11 Combermere Lane, Gloucester","45.45966855107549","-75.61463029355336","","no/non","no/non",""
"Ball Diamond","ball_diamond","Ball Diamond","Alfred Taylor Recreation Facility - North Gower","2300 Community Way, Rideau","45.130567095544485","-75.70902023573801","","yes/oui","no/non",""
"Ball Diamond","ball_diamond","Ball Diamond","Cummings Park","1060 Cummings Avenue, Gloucester","45.43159654341299","-75.63499110893125","","yes/oui","no/non",""
"Ball Diamond","ball_diamond","Harold Hamm Ball Diamond","Centennial Park","5572 Doctor Leach Drive, Rideau","45.22175166041123","-75.68817676364282","","yes/oui","no/non",""
"Ball Diamond","ball_diamond","Ball Diamond 03 - Baseball ","McKendry Park","2567 Dow Street, Osgoode","45.237922674340666","-75.47726554196286","","yes/oui","no/non",""
"Ball Diamond","ball_diamond","T-Ball","Queenswood Heights Centennial Park and Community Centre","1485 Duford Drive, Cumberland","45.46964585147385","-75.50763067726767","","no/non","no/non",""
"Ball Diamond","ball_diamond","Ball Diamond","Fairlea Park","2989 Fairlea Crescent, Ottawa","45.376463771929416","-75.63976416615792","","no/non","no/non",""
"Ball Diamond","ball_diamond","Ball Diamond","Fringewood Park and Community Centre","14 Fringewood Drive, Goulbourn","45.279297819530385","-75.91057985786804","","no/non","no/non",""
"Ball Diamond","ball_diamond","Ball Diamond","Heron Park","999 Heron Road","45.37818867490388","-75.67740562472137","","no/non","no/non",""
"Ball Diamond","ball_diamond","Ball Diamond","Neill Nesbitt Park","70 Foxfield Drive, Nepean","45.28722797399754","-75.74958163040326","","no/non","no/non",""
"Ball Diamond","ball_diamond","Ball Diamond 02","Richmond Lions Community Park","3302 Huntley Road, Goulbourn","45.19847097741927","-75.84464141934579","","yes/oui","no/non",""
"Ball Diamond","ball_diamond","Ball Diamond (Minors)","Barnabé Park","1797 Des Epinettes Avenue, Gloucester","45.460657341966595","-75.50832822088242","","no/non","no/non",""
"Ball Diamond","ball_diamond","Ball Diamond 01 - Baseball","Gil-O-Julien Park","201 Donald Street, Ottawa","45.42849395489841","-75.66232350219246","","yes/oui","no/non",""
"Ball Diamond","ball_diamond","Vince Daly Ball Diamond","Centennial Park","5572 Doctor Leach Drive, Rideau","45.22208494534011","-75.68705465017366","","yes/oui","no/non",""
"Ball Diamond","ball_diamond","Ball Diamond - Baseball","Doug Frobel Park","16 Rowley Avenue, Nepean","45.34909995984427","-75.7421530633652","","yes/oui","no/non",""
"Ball Diamond","ball_diamond","Ball Diamond 02 - Softball","Gil-O-Julien Park","201 Donald Street, Ottawa","45.42916969698323","-75.66020249895828","","yes/oui","no/non",""
"Ball Diamond","ball_diamond","Ball Diamond 02","Kenmore Bicentennial Park","3151 Yorks Corners Road, Osgoode","45.23392378188103","-75.41658018981241","","no/non","no/non",""
"Ball Diamond","ball_diamond","Bill and Marion Atwell Baseball Diamond - West","Grasshopper Hill/Kilborn Park","1609 Kilborn Avenue","45.38785442592047","-75.6541989393369","","no/non","no/non",""
"Ball Diamond","ball_diamond","Ball Diamond - Softball","Ken Ross Park","600 Longfields Drive, Nepean","45.282393866316106","-75.74322632195764","","yes/oui","no/non",""
"Ball Diamond","ball_diamond","Baseball East - Eagles Nest 2","Ken Ross Park","600 Longfields Drive, Nepean","45.28357948469512","-75.74256297990071","","no/non","no/non",""
"Ball Diamond","ball_diamond","Ball Diamond","Sandy Hill Arena","60 Mann Avenue, Ottawa","45.41846058387436","-75.67378227900603","","no/non","no/non",""
"Ball Diamond","ball_diamond","Ball Diamond","Dogwood Park and Munster Hamlet Community Centre","2890 Munster Road, Goulbourn","45.16370243391479","-75.93895777333898","","yes/oui","no/non",""
"Ball Diamond","ball_diamond","Ball Diamond","Munster North Park","2778 Munster Road, Goulbourn","45.16874330861674","-75.94468239528489","","no/non","no/non",""
"Ball Diamond","ball_diamond","Ball Diamond","Marcel Lalande Park","2157 Northlands Drive, Cumberland","45.470175974507775","-75.47568323504838","","no/non","no/non",""
"Ball Diamond","ball_diamond","Ball Diamond - Baseball","Trillium Park","2030 Ogilvie Road, Gloucester","45.43702753126577","-75.59976275968121","","yes/oui","no/non",""
"Ball Diamond","ball_diamond","Ball Diamond - Softball West","Briargreen Park","9 Parkfield Crescent, Nepean","45.33781514473006","-75.77873122385608","","yes/oui","no/non",""
"Ball Diamond","ball_diamond","Ball Diamond 02","Hampton Park","645 Parkview Road, Ottawa","45.387126724498195","-75.73730029323349","","yes/oui","no/non",""
"Ball Diamond","ball_diamond","Ball Diamond 01","R. George Pushman Park","1270 Pebble Road, Ottawa","45.36021826133804","-75.6476569349241","","no/non","no/non",""
"Ball Diamond","ball_diamond","Ball Diamond","McNabb Park","435 Bronson Avenue, Ottawa","45.40941494161374","-75.7039069433941","","no/non","no/non",""
"Ball Diamond","ball_diamond","Ball Diamond","Kinsella Park","1600 Prestwick Drive, Cumberland","45.467736793969195","-75.49965424839908","","yes/oui","no/non",""
"Ball Diamond","ball_diamond","Ball Diamond","Strathcona Park","25 Range Road, Ottawa","45.42483757816304","-75.670835710551","","no/non","no/non",""
"Ball Diamond","ball_diamond","Ball Diamond","Walter Upton-Collins Park","894 River Road, Gloucester","45.2434196974618","-75.69126389328697","","no/non","no/non",""
"Ball Diamond","ball_diamond","Ball Diamond","Bracken Field","5469 Riverside Crescent, Rideau","45.230814188891166","-75.68280950858494","","no/non","no/non",""
"Ball Diamond","ball_diamond","Ball Diamond","Sandalwood Park","2850 Sandalwood Drive, Ottawa","45.37816399844933","-75.64676335196489","","no/non","no/non",""
"Ball Diamond","ball_diamond","Ball Diamond A","Yves Chénier Park","3585 Sarsfield Road, Cumberland","45.439472050407524","-75.34273043321168","","yes/oui","no/non",""
"Ball Diamond","ball_diamond","Ball Diamond","Harold Barnhart Park","5650 Scobie Crescent, Osgoode","45.23061744549247","-75.63974885796715","","no/non","no/non",""
"Ball Diamond","ball_diamond","Ball Diamond","Dunrobin Community Centre","1151 Thomas A. Dolan Parkway, West Carleton","45.422033335699595","-76.02574999931083","","yes/oui","no/non",""
"Ball Diamond","ball_diamond","Ball Diamond","Weston Park","955 Pleasant Park Road, Ottawa","45.395670122229305","-75.6250381986897","","no/non","no/non",""
"Basketball Court","basketball","Clé de basketball","Gérald Poulin Park","1899 Du Clairvaux Road, Gloucester","45.44382981274903","-75.53836958718915","Key Court / Clé de basketball","unknown","no/non",""
"Basketball Court","basketball","Basketball Key","Roy Park","6210 Meadowglen Drive, Gloucester","45.449382968030214","-75.5298066860008","Half / Demi","unknown","no/non",""
"Basketball Court","basketball","Basketball Court","Marlene Catterall Park","2955 Michèle Drive, Ottawa","45.35527991463865","-75.80194546676705","Full / Entier","unknown","no/non",""
"Basketball Court","basketball","Basketball Court","Dogwood Park and Munster Hamlet Community Centre","2890 Munster Road, Goulbourn","45.1627819809921","-75.93909046708286","Non standard","unknown","no/non",""
"Basketball Court","basketball","Basketball Court","Ogilvie North Park","1059 Ogilvie Road, Gloucester","45.42563141687001","-75.63509483110889","Full / Entier","unknown","no/non",""
"Basketball Court","basketball","Basketball Court","Carrol Homestead Community Park / Corkery Community Centre","3447 Old Almonte Road, West Carleton","45.25946863111169","-76.06250660653966","Non standard (on ice rink)","unknown","no/non",""
"Basketball Court","basketball","Basketball Key","Hiawatha Park","6218 Voyageur Drive","45.47792185583336","-75.54789050749204","Key Court / Clé de basketball","unknown","no/non",""
"Basketball Court","basketball","Basketball Court","Briargreen Park","9 Parkfield Crescent, Nepean","45.33796660316947","-75.77927285227686","Small / Petit","unknown","no/non",""
"Basketball Court","basketball","Basketball Court","Youth Gym and 55 Plus Club","1463 Prince of Wales Drive, Ottawa","45.367873197347365","-75.70013997323451","Full / Entier","unknown","no/non",""
"Basketball Court","basketball","Basketball Court","Claudette Cain Park","660 River Road","45.27317703609811","-75.69856207345481","Small / Petit","unknown","no/non",""
"Basketball Court","basketball","Basketball Key","Davidson Park","5 Ryerson Avenue, Nepean","45.26552589468488","-75.71501565033472","Key Court / Clé de basketball","unknown","no/non",""
"Basketball Court","basketball","Basketball Court","Alexander Park","960 Silver Street, Ottawa","45.38010096168437","-75.73153663050533","Small / Petit","unknown","no/non",""
"Basketball Court","basketball","Basketball Key","Kars Community Park","1604 Old Wellington Street","45.149328024091716","-75.64837267750818","Key Court / Clé de basketball","unknown","no/non",""
"Basketball Court","basketball","Basketball Court","Moloughney Park","30 Wessex Road, Nepean","45.27351768443462","-75.75178238966161","Small / Petit - Non standard","unknown","no/non",""
"Basketball Court","basketball","Basketball Court","Tanglewood Park","30 Woodfield Drive, Nepean","45.336682541213335","-75.72937235901719","Full / Entier","unknown","no/non",""
"Basketball Court","basketball","Basketball Key","Mattawa Park","94 Steeple Chase Drive, Kanata","45.30035798761259","-75.85568893215094","Key Court / Clé de basketball","unknown","no/non",""
"Basketball Court","basketball","Basketball Key","North Vineyard Park","6018 Voyageur Drive, Gloucester","45.474116080072","-75.54943686472717","Half / Demi","unknown","no/non",""
"Basketball Court","basketball","Basketball Key","Michael Budd Park","2359 Orient Park Drive, Gloucester","45.43302846887791","-75.554886442296","Key Court / Clé de basketball","unknown","no/non",""
"Basketball Court","basketball","Basketball Key","Constance Buckham's Bay Community Centre Park","262 Len Purcell Drive, West Carleton","45.49872503822223","-76.09297764872488","Small / Petit","unknown","no/non",""
"Basketball Court","basketball","Basketball Key","Kings Grant Park","30 Queenston Drive / 36 Dr. Neelan Drive, Richmond","45.19980581779329","-75.8340813198374","Key Court / Clé de basketball","unknown","no/non",""
"Basketball Court","basketball","Basketball Key","Valin Park and South Fallingbrook Community Centre","998 Valin Street, Cumberland","45.47098613587489","-75.46243118646741","Half / Demi","unknown","yes/oui",""
"Basketball Court","basketball","Basketball Court","Dr. John Hopps Park","300 Den Haag Drive, Ottawa","45.44061950587655","-75.63258459325199","Full / Entier","unknown","no/non",""
"Basketball Court","basketball","Basketball Key","Parkland (Hydro Corridor)","5590 Campeau Drive, Kanata","45.32073670887194","-75.9032617575588","Half / Demi","unknown","no/non",""
"Basketball Court","basketball","Basketball Key","Boisdale Park","210 Émerillon Ridge, Cumberland","45.448255719062544","-75.46443976195053","Key Court / Clé de basketball","unknown","no/non",""
"Basketball Court","basketball","Basketball Court","Boothfield Park","660 Boothfield Street","45.288593279702916","-75.66507549735357","Small / Petit","unknown","no/non",""
"Basketball Court","basketball","Basketball Key","Anishà Park","4355 Kelly Farm Drive","45.31219282351736","-75.59648599837553","Key Court / Clé de basketball","unknown","yes/oui",""
"Basketball Court","basketball","Basketball Key","Black Raven Community Park","675 Dundonald Drive","45.24177511112902","-75.7412234579631","Small / Petit","unknown","no/non",""
"Basketball Court","basketball","Basketball Court","Don Boudria Park","655 Décoeur Drive","45.44423316221599","-75.49092039152397","Non standard (on ice rink)","unknown","no/non",""
"Basketball Court","basketball","Basketball Court","Bert Dowler Park","100 Highgarden Terrace","45.32355098393077","-75.58342020379065","Small / Petit","unknown","no/non",""
"Basketball Court","basketball","Basketball Key","Meynell Park","245 Meynell Road","45.1848052047015","-75.84742319096362","Key Court / Clé de basketball","unknown","yes/oui",""
"Basketball Court","basketball","Basketball Court","Britannia Park","2805 Carling Avenue","45.36047724349521","-75.79913326921054","Full / Entier","unknown","no/non",""
"Basketball Court","basketball","Basketball Court","Cedarcroft Park","1200 Cedarcroft Crescent, Gloucester","45.42457970786949","-75.61332523817661","Full / Entier","unknown","no/non",""
"Basketball Court","basketball","Basketball Court","Vanessa Gilles Park","1465 Ridgebrook Drive, Gloucester","45.42303043621329","-75.60464391657592","Full / Entier","unknown","no/non",""
"Basketball Court","basketball","Basketball Court","Laroche Park","51 Stonehurst Avenue, Ottawa","45.40868889201277","-75.72915997392782","Full / Entier","unknown","no/non",""
"Basketball Court","basketball","Basketball Court","Windsor Park Ottawa","1B Windsor Avenue, Ottawa","45.39417885614086","-75.67698438941329","Full / Entier","unknown","no/non",""
"Basketball Court","basketball","Basketball Court","St. Luke's Park","166 Frank Street, Ottawa","45.41523914162785","-75.68671822121829","Full / Entier","unknown","no/non",""
"Basketball Court","basketball","Basketball Court","Pinecrest Recreation Complex and Park","2250 Torquay Avenue, Ottawa","45.34925236790634","-75.77484557636599","Full / Entier","unknown","no/non",""
"Basketball Court","basketball","Basketball Court","Raven Park","1500 Larose Avenue, Ottawa","45.376818108607786","-75.74016591359992","Full / Entier","unknown","no/non",""
"Basketball Court","basketball","Basketball Court","Ryan Farm Park","5 Parkglen Drive, Nepean","45.3474419253326","-75.75282265852357","Full / Entier","unknown","no/non",""
"Basketball Court","basketball","Basketball Court","Rideauview Park","960 Eiffel Avenue, Ottawa","45.36741605799797","-75.70651182325776","Full / Entier","unknown","no/non",""
"Basketball Court","basketball","Basketball Court","Ruth Wildgen Park","1099 Grenon Avenue, Ottawa","45.35058431537484","-75.79567702001951","Full / Entier","unknown","no/non",""
"Basketball Court","basketball","Basketball Court","North Vineyard Park","6018 Voyageur Drive, Gloucester","45.47405675919524","-75.54917631646386","Full / Entier","unknown","no/non",""
"Basketball Court","basketball","Basketball Court","Luc Major Park","956 Bilberry Drive, Gloucester","45.48357608552084","-75.53344492847852","Full / Entier","unknown","no/non",""
"Basketball Court","basketball","Basketball Court","Luc Major Park","956 Bilberry Drive, Gloucester","45.48357013811945","-75.53367075865272","Full / Entier","unknown","no/non",""
"Basketball Court","basketball","Basketball Court","Stonegate Park","45 McIntosh Way, Kanata","45.302574171476095","-75.89787788726143","Full / Entier","unknown","no/non",""
"Basketball Court","basketball","Basketball Court","Overbrook Park","33 Quill Street","45.42544780834794","-75.65647749898707","Full / Entier","unknown","no/non",""
"Basketball Court","basketball","Basketball Court","Riverain Park","400 North River Road, Vanier","45.431388640234836","-75.66977913726664","Full / Entier","unknown","no/non",""
"Basketball Court","basketball","Basketball Court","Joe Jamieson Park","6940 Bilberry Drive, Gloucester","45.481168309085724","-75.5238590779469","Small / Petit","unknown","no/non",""
"Basketball Court","basketball","Basketball Court","Pineglen Park","22 Brisbane Road, Nepean","45.325648505426805","-75.70853597013803","Full / Entier","unknown","no/non",""
"Basketball Court","basketball","Union St. Roundabout Basketball Court","Bordeleau Park","349 Bruyère Street, Ottawa","45.43732162254991","-75.69287723789284","Full / Entier","unknown","no/non",""
"Basketball Court","basketball","Basketball Court","Bellevue Manor Park","1520 Caldwell Avenue, Ottawa","45.37225449940101","-75.73958293123505","Full / Entier","unknown","no/non",""
"Basketball Court","basketball","Basketball Key","Champlain Park","140 Carleton Avenue, Ottawa","45.40452003390714","-75.74543140570579","Half / Demi","unknown","no/non",""
"Basketball Court","basketball","Basketball Court","Whalen Park","4111 Kanata Avenue, Kanata","45.32264298121525","-75.92360798339813","Full / Entier","unknown","no/non",""
"Basketball Court","basketball","Basketball Key","Frank J. Licari Park","1990 Cochrane Street / 1274 Vancouver Avenue, Ottawa","45.36885090467991","-75.65752491843868","Key Court / Clé de basketball","unknown","no/non",""
"Basketball Court","basketball","Basketball Court","Alfred Taylor Recreation Facility - North Gower","2300 Community Way, Rideau","45.1305434215969","-75.71127219447598","Small / Petit","unknown","no/non",""
"Basketball Court","basketball","Basketball Key","Chapel Hill Park","1556 Forest Valley Drive, Gloucester","45.450572896519326","-75.53839704778909","Key Court / Clé de basketball","unknown","no/non",""
"Basketball Court","basketball","Basketball Key","Balena Park","1640 Devon Street, Ottawa","45.40539502220751","-75.64382157781854","Key Court / Clé de basketball","unknown","no/non",""
"Basketball Court","basketball","Basketball Court","Queenswood Heights Centennial Park and Community Centre","1485 Duford Drive, Cumberland","45.47093653832441","-75.50734666770408","Full / Entier","unknown","no/non",""
"Basketball Court","basketball","Basketball Key","Champagne Park","1861 Markwell Crescent, Gloucester","45.45472289663333","-75.51558744111638","Key Court / Clé de basketball","unknown","no/non",""
"Basketball Court","basketball","Basketball Key","Eastvale Park","740 Eastvale Drive, Gloucester","45.459100010656165","-75.59833249083192","Key Court / Clé de basketball","unknown","no/non",""
"Basketball Court","basketball","Basketball Court","Fallingbrook Park","681 Deancourt Crescent, Cumberland","45.481274384217215","-75.48820283148265","Small / Petit","unknown","no/non",""
"Basketball Court","basketball","Basketball Key","Barry Mullen Park","152 Grandview Road, Nepean","45.36104890651306","-75.8569410480114","Key Court / Clé de basketball","unknown","no/non",""
"Basketball Court","basketball","Basketball Key","Trèva Cousineau Park","1756 Grey Nuns Drive, Gloucester","45.46909487668976","-75.53640323521934","Key Court / Clé de basketball","unknown","no/non",""
"Basketball Court","basketball","Basketball Key","Trèva Cousineau Park","1756 Grey Nuns Drive, Gloucester","45.469251374333716","-75.53620264770461","Key Court / Clé de basketball","unknown","no/non",""
"Basketball Court","basketball","Basketball Court","Heatherington Park","1560 Heatherington Road, Ottawa","45.373794114231174","-75.64807469734528","Small / Petit","unknown","no/non",""
"Basketball Court","basketball","Basketball Court","Racette Park","1410 Henri Lauzon Street, Gloucester","45.46263333628272","-75.53670000085998","Full / Entier","unknown","no/non",""
"Basketball Court","basketball","Basketball Court","Heron Park","999 Heron Road","45.37993873728421","-75.67722878866275","Full / Entier","unknown","no/non",""
"Basketball Court","basketball","Basketball Court","Uplands Riverside Park","3860 Riverside Drive, Ottawa","45.33785745493115","-75.69486017994933","Full / Entier","unknown","no/non",""
"Basketball Court","basketball","Basketball Court","Grovehurst Park","100 Grovehurst Drive, Nepean","45.27754860381561","-75.71217207462534","Full / Entier","unknown","no/non",""
"Basketball Court","basketball","Basketball Court","Shadow Ridge Park","7064 Donwel Drive, Greely","45.25226219283719","-75.555479987052","Full / Entier","unknown","no/non",""
"Basketball Court","basketball","Basketball Key","Coyote Run Park","367 West Ridge Drive","45.246492626653485","-75.92010228015408","Key Court / Clé de basketball","unknown","yes/oui",""
"Basketball Court","basketball","Basketball Court","Deer Run Park","272 West Ridge Drive, Goulbourn","45.25024584192925","-75.92625138930937","Full / Entier","unknown","no/non",""
"Basketball Court","basketball","Basketball Key","Confederation Park","2350 Russell Road, Ottawa","45.393155881106686","-75.60855582182178","Key Court / Clé de basketball","unknown","no/non",""
"Basketball Court","basketball","Basketball Key","Walden Park","130 Walden Drive, Kanata","45.328104337480646","-75.92202502520506","Half / Demi","unknown","no/non",""
"Basketball Court","basketball","Basketball Court","Proudmore Romina Park","205 Romina Street, Goulbourn","45.27294840600516","-75.86400447144602","Full / Entier","unknown","no/non",""
"Basketball Court","basketball","Basketball Court","Richcraft Recreation Complex - Kanata","4101 Innovation Drive, Kanata","45.33967063124073","-75.92964294812184","Full / Entier","unknown","no/non",""
"Basketball Court","basketball","Basketball Court","Aquaview Park","318 Aquaview Drive, Cumberland","45.45288136695884","-75.47704944862802","Full / Entier","unknown","yes/oui",""
"Basketball Court","basketball","Basketball Key","Nimiq Park","5058 North Bluff Drive, Gloucester","45.28320926339239","-75.67446626614482","Key Court / Clé de basketball","unknown","no/non",""
"Basketball Court","basketball","Basketball Court","Cardinal Creek Community Park","1825 Trim Road, Cumberland","45.478297222824935","-75.45853326619391","Full / Entier","unknown","no/non",""
"Basketball Court","basketball","Basketball Court","Diamond Jubilee Park","2810 Findlay Creek Drive / 4008 Kelly Farm Drive, Gloucester","45.31463198630082","-75.60984679610648","Small / Petit - Non standard","unknown","no/non",""
"Basketball Court","basketball","Basketball Court","Silverbirch Park","6105 Silverbirch Street, Gloucester","45.44264753981475","-75.52901804602973","Full / Entier","unknown","no/non",""
"Basketball Court","basketball","Basketball Court","St. François Park","1855 Simard Drive, Gloucester","45.45167698489618","-75.5189551936755","Full / Entier","unknown","no/non",""
"Basketball Court","basketball","Basketball Court","Sheffield Glen Park","2320 Southvale Crescent, Ottawa","45.3971488650678","-75.61424534748782","Full / Entier","unknown","no/non",""
"Basketball Court","basketball","Basketball Key","Kilreen Park","1250 Southwood Drive, Ottawa","45.34656919660209","-75.78372487767213","Key Court / Clé de basketball","unknown","no/non",""
"Basketball Court","basketball","Basketball Court","Optimiste Park","43 Ste. Cécile Street, Vanier","45.442399767949986","-75.6697559418677","Full / Entier","unknown","no/non",""
"Basketball Court","basketball","Basketball Key","Marcel Bériault Park","1691 Sunview Drive, Gloucester","45.46356498432672","-75.51409996575316","Key Court / Clé de basketball","unknown","no/non",""
"Basketball Court","basketball","Basketball Key","Houlahan Park and West Houlahan Park","44 Tartan Drive, Nepean","45.26755200148219","-75.76100685334434","Key Court / Clé de basketball","unknown","no/non",""
"Basketball Court","basketball","Basketball Key","Meadowvale Terrace Park","1205 Trenton Avenue, Ottawa","45.37802242807056","-75.72448882338362","Key Court / Clé de basketball","unknown","no/non",""
"Basketball Court","basketball","Basketball Key","Uplands Park","3165 Uplands Drive, Ottawa","45.348830061130016","-75.68206603141478","Half / Demi","unknown","no/non",""
"Basketball Court","basketball","Basketball Court","Walter Baker Park","100 Charlie Rogers Place","45.294769900629255","-75.9020132717904","Full / Entier","unknown","no/non",""
"Basketball Court","basketball","Basketball Court","McKellar Park","539 Wavell Avenue, Ottawa","45.38359693142339","-75.76605731751725","Full / Entier","unknown","no/non",""
"Basketball Court","basketball","Basketball Key","Silverbirch Park","6105 Silverbirch Street, Gloucester","45.44273191640128","-75.52886498747836","Half / Demi","unknown","no/non",""
"Basketball Court","basketball","Basketball Key","Grassy Plains Park","85 Grassy Plains Drive, Kanata","45.277889802401425","-75.85099991321741","Key Court / Clé de basketball","unknown","no/non",""
"Basketball Court","basketball","Basketball Key","Sawmill Creek Pool Park","3380 D'Aoust Avenue, Gloucester","45.349976096525126","-75.63668576454505","Half / Demi","unknown","no/non",""
"Basketball Court","basketball","Basketball Key","Kemp Park","11 Robert Kemp Street, Gloucester","45.336501266701724","-75.60639391919104","Key Court / Clé de basketball","unknown","no/non",""
"Basketball Court","basketball","Basketball Court","Fisher Park","250 Holland Avenue, Ottawa","45.39570768149822","-75.73082027437191","Full / Entier","unknown","no/non",""
"Basketball Court","basketball","Basketball Court","Neill Nesbitt Park","70 Foxfield Drive, Nepean","45.28657130348765","-75.74839602760306","Full / Entier","unknown","no/non",""
"Basketball Court","basketball","Basketball Court","Jasmine Park","2040 Jasmine Crescent, Gloucester","45.44067006483459","-75.59388833018697","Half / Demi","unknown","no/non",""
"Basketball Court","basketball","Basketball Court","Manordale Park","60 Knoxdale Road, Nepean","45.329819568983524","-75.76127068854328","Full / Entier","unknown","no/non",""
"Basketball Court","basketball","Basketball Key","La Verendrye Park","625 La Verendrye Drive, Gloucester","45.45530858500012","-75.60491038024539","Key Court / Clé de basketball","unknown","no/non",""
"Basketball Court","basketball","Basketball Court","Marsha Park","855 A Lawnsberry Drive, Cumberland","45.48574849263194","-75.51260751372328","Full / Entier","unknown","no/non",""
"Basketball Court","basketball","Basketball Court","Osgoode Community Centre","5660 Osgoode Main Street, Osgoode","45.146887330233305","-75.60150992990825","Full / Entier","unknown","no/non",""
"Basketball Court","basketball","Basketball Court","Carson Grove Park","1423 Matheson Road, Gloucester","45.43717542238495","-75.62193190169232","Non standard (on ice rink)","unknown","no/non",""
"Basketball Court","basketball","Basketball Court","Cyrville Park","1420 Meadowbrook Road, Gloucester","45.41918607972123","-75.60771043617251","Full / Entier","unknown","no/non",""
"Basketball Court","basketball","Basketball Court","Jasmine Park","2040 Jasmine Crescent, Gloucester","45.44099767587658","-75.59394824512148","Small / Petit","unknown","no/non",""
"Basketball Court","basketball","Basketball Court","McCarthy Park","3320 Paul Anka Drive","45.35102480758878","-75.67357963973917","Small / Petit","unknown","no/non",""
"Basketball Court","basketball","Basketball Key","McKendry Park","2567 Dow Street, Osgoode","45.23774257299981","-75.47825712303474","Key Court / Clé de basketball","unknown","no/non",""
"Basketball Court","basketball","Basketball Court","Merivale Gardens Park","25 Bie Street, Nepean","45.322749382822096","-75.74007379585912","Half / Demi","unknown","no/non",""
"Basketball Court","basketball","Basketball Key","Fisher Heights Park","31 Sutton Place, Nepean","45.364786255586296","-75.72149280626546","Key Court / Clé de basketball","unknown","no/non",""
"Basketball Court","basketball","Basketball Court","Fitzroy Harbour Community Centre and Campbell Bicentennial Park","100 Clifford Campbell Street, West Carleton","45.47033802925775","-76.205732269776","Non standard (on ice rink)","unknown","no/non",""
"Basketball Court","basketball","Basketball Court","Michael Budd Park","2359 Orient Park Drive, Gloucester","45.43304264814844","-75.55458609058076","Small / Petit","unknown","no/non",""
"Basketball Court","basketball","Basketball Key","Medhurst Park","72 Medhurst Drive / 403 Woodfield Drive","45.334770984721374","-75.74369427415206","Key Court / Clé de basketball","unknown","no/non",""
"Basketball Court","basketball","Basketball Court","Medhurst Park","72 Medhurst Drive / 403 Woodfield Drive","45.33473123477235","-75.74389405408138","Full / Entier","unknown","no/non",""
"Basketball Court","basketball","Basketball Court","Michael Budd Park","2359 Orient Park Drive, Gloucester","45.43303176705739","-75.55478155769838","Small / Petit","unknown","no/non",""
"Basketball Court","basketball","Basketball Key","Millers Point Park","474 Lockmaster Crescent, Goulbourn","45.22694701146938","-75.69551338092502","Key Court / Clé de basketball","unknown","unknown",""
"Basketball Court","basketball","Basketball Key","Jim Malone Park","400 Goldridge Drive, Kanata","45.317869876084046","-75.9204129930378","Key Court / Clé de basketball","unknown","no/non",""
"Basketball Court","basketball","Basketball Court","Ev Tremblay Park","108 Beech Street, Ottawa","45.399880746719674","-75.71150613823386","Small / Petit","unknown","no/non",""
"Basketball Court","basketball","Basketball Court","Joe Rowan Park","2665 Glenwood Drive, Osgoode","45.2372814183074","-75.46640577256055","Small / Petit","unknown","no/non",""
"Basketball Court","basketball","Basketball Court","Marlene Catterall Park","2955 Michèle Drive, Ottawa","45.3552305953842","-75.8021278580074","Full / Entier","unknown","no/non",""
"Basketball Court","basketball","Basketball Court","Bert Dowler Park","100 Highgarden Terrace","45.323684167731734","-75.58349218759099","Small / Petit","unknown","no/non",""
"Basketball Court","basketball","Basketball Key","Gesner Court Park","25 Gesner Court, Kanata","45.29862846376781","-75.90090240882186","Key Court / Clé de basketball","unknown","no/non",""
"Basketball Court","basketball","Basketball Key","General Burns Park","107 Chesterton Drive, Nepean","45.35219077945541","-75.72037418993771","Key Court / Clé de basketball","unknown","no/non",""
"Basketball Court","basketball","Basketball Key","Sarah McCarthy Park","240 Cedarstone Street","45.19544679512655","-75.8443286636931","Half / Demi","unknown","yes/oui",""
"Basketball Court","basketball","Basketball Court","Bearbrook Park and Pool","99 Bearbrook Road, Gloucester","45.433833480557084","-75.563726979501","Small / Petit","unknown","no/non",""
"Basketball Court","basketball","Basketball Court","Bayshore Park","175 Woodridge Crescent, Nepean","45.35105037086758","-75.80973852523165","Small / Petit","unknown","no/non",""
"Basketball Court","basketball","Basketball Court","Bearbrook Park and Pool","99 Bearbrook Road, Gloucester","45.433952757846946","-75.56329080610806","Small / Petit","unknown","no/non",""
"Basketball Court","basketball","Basketball Court","Bathgate Park","724 Bathgate Drive, Ottawa","45.44232028563847","-75.62642435936021","Small / Petit","unknown","no/non",""
"Basketball Court","basketball","Basketball Court","Bayshore Park","175 Woodridge Crescent, Nepean","45.3508653785275","-75.80985726903747","Small / Petit","unknown","no/non",""
"Basketball Court","basketball","Basketball Court","Clarence Maheral Park","183 Old Colony Road / 170 Castlefrank Road, Kanata","45.28955876557527","-75.87871494656885","Small / Petit","unknown","no/non",""
"Basketball Court","basketball","Basketball Court","Senator Eugene Forsey Park","964 Bronson Avenue, Ottawa","45.39581285135554","-75.69757731598584","Full / Entier","unknown","no/non",""
"Basketball Court","basketball","Basketball Court","Sylvia Holden Park","641 O'Connor Street, Ottawa","45.40291081549137","-75.68184694579172","Full / Entier","unknown","no/non",""
"Basketball Court","basketball","Basketball Key","Cummings Park","1060 Cummings Avenue, Gloucester","45.43089474402983","-75.63560798024022","Key Court / Clé de basketball","unknown","no/non",""
"Basketball Court","basketball","Basketball Court","Morrison Park","1095 Morrison Drive, Ottawa","45.344642060138554","-75.79515497038037","Full / Entier","unknown","no/non",""
"Basketball Court","basketball","Basketball Key","Totteridge Park","11 Totteridge Avenue, Nepean","45.28273821756901","-75.73656002125225","Half / Demi","unknown","no/non",""
"Basketball Court","basketball","Basketball Key","W.C. Bowes Park","1251 Halton Terrace, Kanata","45.35149014798358","-75.94140098879085","Half / Demi","unknown","no/non",""
"Basketball Court","basketball","Basketball Key","Geoff Wightman Park","100 Kamloops Avenue","45.35254058407051","-75.69737800228218","Half / Demi","unknown","no/non",""
"Basketball Court","basketball","Basketball Key","Mooney's Bay Park","2960 Riverside Drive, Ottawa","45.371198857502655","-75.69153317047991","Half / Demi","unknown","no/non",""
"Basketball Court","basketball","Basketball Key","Parthia Park","16 Parthia Avenue, Nepean","45.36234643800024","-75.72453266027117","Half / Demi","unknown","no/non",""
"Basketball Court","basketball","Basketball Key","Fountainhead Park","105 Felicity Crescent, Gloucester","45.42534333106522","-75.51900029539097","Key Court / Clé de basketball","unknown","unknown",""
"Basketball Court","basketball","Basketball Key","Foot Guards Park","226 Leamington Way, Nepean","45.26784414805435","-75.73052941784923","Key Court / Clé de basketball","unknown","unknown",""
"Basketball Court","basketball","Basketball Court","Burnett Park","135 Sherway Drive, Nepean","45.27613189881932","-75.7581557156169","Small / Petit","unknown","no/non",""
"Basketball Court","basketball","Basketball Key","Iona Park","223 Iona Street, Ottawa","45.392333027705476","-75.7423910055244","Key Court / Clé de basketball","unknown","no/non",""
"Basketball Court","basketball","Basketball Key","Iona Park","223 Iona Street, Ottawa","45.392430672253056","-75.74224757152298","Key Court / Clé de basketball","unknown","no/non",""
"Basketball Court","basketball","Basketball Key","Wing Officer Willa Walker Park","305 Lysander Place","45.449543385420924","-75.6366699272466","Key Court / Clé de basketball","unknown","no/non",""
"Basketball Court","basketball","Basketball Court","Four Seasons Park","4386 Spratt Road, Gloucester","45.275480271433686","-75.69025409348284","Full / Entier","unknown","no/non",""
"Basketball Court","basketball","Basketball Key","Fringewood Park and Community Centre","14 Fringewood Drive, Goulbourn","45.279773266123485","-75.91159732299651","Key Court / Clé de basketball","unknown","no/non",""
"Basketball Court","basketball","Basketball Key","Ruisseau Park","6116 Creek Crossing Street","45.4372320243382","-75.52545795788006","Half / Demi","unknown","no/non",""
"Basketball Court","basketball","Basketball Key","North Vineyard Park","6018 Voyageur Drive, Gloucester","45.474053709085915","-75.54949537649321","Half / Demi","unknown","no/non",""
"Basketball Court","basketball","Basketball Key","Weybridge Park","75 Flanders Street, Nepean","45.268926742365835","-75.76854707019241","Half / Demi","unknown","no/non",""
"Basketball Court","basketball","Basketball Key","Rouncey Park","590 Rouncey Road","45.27536784145615","-75.88114749722166","Key Court / Clé de basketball","unknown","yes/oui",""
"Basketball Court","basketball","Basketball Key","Bradley Ridge Park","221 Radhika Court, Gloucester","45.426778946988534","-75.5258448128656","Key Court / Clé de basketball","unknown","yes/oui",""
"Basketball Court","basketball","Basketball Key","Hintonburg Park","101 Duhamel Street, Ottawa","45.40344028358701","-75.72401533038052","Half / Demi","unknown","no/non",""
"Basketball Court","basketball","Basketball Key","Ridgeview Park","2331 Edwin Crescent, Ottawa","45.3498197737351","-75.77963410976838","Half / Demi","unknown","no/non",""
"Basketball Court","basketball","Basketball Key","Mulligan Park","70 Mountshannon Drive, Nepean","45.29156370877083","-75.7356915210524","Half / Demi","unknown","no/non",""
"Basketball Court","basketball","Basketball Key","Ruisseau Park","6116 Creek Crossing Street","45.4372358946198","-75.52544659509003","Half / Demi","unknown","no/non",""
"Basketball Court","basketball","Basketball Key","Paul Landry Park","3345 Uplands Drive, Ottawa","45.347871036909545","-75.67271711153934","Half / Demi","unknown","no/non",""
"Basketball Court","basketball","Basketball Key","Westcliffe Park","681 Seyton Drive, Nepean","45.31509138713067","-75.83369312187054","Half / Demi","unknown","no/non",""
"Basketball Court","basketball","Basketball Key","Weston Park","955 Pleasant Park Road, Ottawa","45.395797880540094","-75.6253453308887","Half / Demi","unknown","no/non",""
"Basketball Court","basketball","Basketball Court","Boothfield Park","660 Boothfield Street","45.28841361585229","-75.66484455396875","Small / Petit","unknown","no/non",""
"Basketball Court","basketball","Basketball Court","Brookshire Park","1027 Klondike Road, Kanata","45.35831394299262","-75.92901185738025","Full / Entier","unknown","yes/oui",""
"Basketball Court","basketball","Basketball Court","Cresthaven Park","28 Cresthaven Drive, Nepean","45.28407585158474","-75.7076689000561","Full / Entier","unknown","no/non",""
"Basketball Court","basketball","Basketball Key","Grandeur Park","2915 Haughton Avenue, Ottawa","45.360058090635675","-75.80376272265421","Key Court / Clé de basketball","unknown","no/non",""
"Basketball Court","basketball","Basketball Key","Devonian Park","171 Escarpment Crescent","45.320779478400816","-75.94027501526091","Key Court / Clé de basketball","unknown","yes/oui",""
"Basketball Court","basketball","Basketball Key","Vernon Recreation Centre","7950 Lawrence Street, Osgoode","45.16300290457914","-75.4545314503679","Half / Demi","unknown","no/non",""
"Basketball Court","basketball","Basketball Key","Glen Cairn Community Centre / Morrena Park","190 Morrena Road, Kanata","45.29611846297488","-75.88560895672404","Key Court / Clé de basketball","unknown","no/non",""
"Basketball Court","basketball","Basketball Court","Greenboro Park and Community Centre","363 Lorry Greenberg Drive","45.362754784048775","-75.6359608717215","Small / Petit","unknown","no/non",""
"Basketball Court","basketball","Basketball Key","Mountain Meadows Park","3740 Mountain Meadows Crescent, Gloucester","45.2841177316787","-75.68541566944621","Key Court / Clé de basketball","unknown","no/non",""
"Basketball Court","basketball","Basketball Court","Nanaimo Park","48 Nanaimo Drive, Nepean","45.34242835978721","-75.79879531850908","Full / Entier","unknown","no/non",""
"Basketball Court","basketball","Basketball Key","Henri-Rocque Park","229 Hepatica Way","45.446751722189916","-75.48337915598634","Key Court / Clé de basketball","unknown","yes/oui",""
"Basketball Court","basketball","Basketball Key","Plouffe Park","930 Somerset Street West, Ottawa","45.407476966595496","-75.71508319466093","Half / Demi","unknown","no/non",""
"Basketball Court","basketball","Basketball Key","Pat Clark Community Centre","4355 Halmont Drive, Gloucester","45.42890000192191","-75.62009999967276","Half / Demi","unknown","no/non",""
"Basketball Court","basketball","Basketball Key","Winfield Park","6 Winfield Avenue, Nepean","45.351084646084594","-75.80319455889826","Half / Demi","unknown","no/non",""
"Basketball Court","basketball","Basketball Key","Roy Park","6210 Meadowglen Drive, Gloucester","45.44975000290757","-75.53024999920363","Half / Demi","unknown","no/non",""
"Basketball Court","basketball","Basketball Key","Roy Park","6210 Meadowglen Drive, Gloucester","45.44933333634778","-75.52988333385412","Half / Demi","unknown","no/non",""
"Basketball Court","basketball","Basketball Court","Fairlea Park","2989 Fairlea Crescent, Ottawa","45.37667335264993","-75.63993091952578","Not standard size","unknown","no/non",""
"Basketball Court","basketball","Basketball Key","Richcraft Recreation Complex - Kanata","4101 Innovation Drive, Kanata","45.34186436963351","-75.9312504842211","Half / Demi","unknown","no/non",""
"Basketball Court","basketball","Basketball Key","Ouellette Park","530 Strasbourg Street, Cumberland","45.45148113353029","-75.48863909470712","Half / Demi","unknown","no/non",""
"Basketball Court","basketball","Basketball Court","Stanley Park","1575 Lakeshore Drive, Osgoode","45.24538685366072","-75.58387735104884","Full / Entier","unknown","no/non",""
"Basketball Court","basketball","Basketball Court","Scisson's Park","96 Bridle Park Drive, Kanata","45.28337238766778","-75.84884634156259","Full / Entier","unknown","no/non",""
"Basketball Court","basketball","Basketball Court","Scala Park","797 Scala Avenue, Cumberland","45.46290468592713","-75.46863166129066","Full / Entier","unknown","no/non",""
"Basketball Court","basketball","Basketball Court","Rooney Park","15 Steeple Hill Crescent, Nepean","45.26771327092059","-75.8265718873558","Full / Entier","unknown","no/non",""
"Basketball Court","basketball","Basketball Court","Whiterock Park","1245 Matheson Road, Gloucester","45.432025222705725","-75.62786743998208","Full / Entier","unknown","no/non",""
"Basketball Court","basketball","Basketball Court","Trappers Park","3580 Trapper's Road, Gloucester","45.34664664248493","-75.64521534182963","Full / Entier","unknown","no/non",""
"Basketball Court","basketball","Basketball Court","Trojan Park","901 Trojan Avenue, Ottawa","45.433240955838784","-75.63717201632014","Full / Entier","unknown","no/non",""
"Basketball Court","basketball","Basketball Court","New Edinburgh Park","203 Stanley Avenue, Ottawa","45.43782232494135","-75.68699651031015","Full / Entier","unknown","no/non",""
"Basketball Court","basketball","Basketball Court","Heatherington Park","1560 Heatherington Road, Ottawa","45.37353664823828","-75.64820973748868","Small / Petit","unknown","no/non",""
"Basketball Court","basketball","Basketball Court","Heatherington Park","1560 Heatherington Road, Ottawa","45.373520197388785","-75.64906901827877","Half / Demi","unknown","no/non",""
"Basketball Court","basketball","Basketball Court","Don Boudria Park","655 Décoeur Drive","45.444399054186334","-75.49122447573922","Non standard (on ice rink)","unknown","no/non",""
"Basketball Court","basketball","Basketball Court","Stonecrest Park","220 Stoneway Drive","45.28789122239943","-75.71585896536726","Full / Entier","unknown","no/non",""
"Basketball Court","basketball","Basketball Court","Mowat Farm Park","100 Fable Street, Nepean","45.27748272545672","-75.76495027238867","Full / Entier","unknown","no/non",""
"Basketball Court","basketball","Basketball Key","Rubicon Park","915 Rubicon Place","45.27111294253891","-75.87860334616614","Key Court / Clé de basketball","unknown","yes/oui",""
"Basketball Court","basketball","Basketball Court","Sieveright Park","2999 Sable Ridge Drive, Gloucester","45.355262858156735","-75.63599166057953","Full / Entier","unknown","no/non",""
"Basketball Court","basketball","Basketball Key","Memorial Grove Park","335 Memorial Grove","45.271574903626046","-75.67756038468188","Key Court / Clé de basketball","unknown","yes/oui",""
"Basketball Court","basketball","Basketball Court","Sandalwood Park","2850 Sandalwood Drive, Ottawa","45.37763380638093","-75.64776576941404","Full / Entier","unknown","no/non",""
"Basketball Court","basketball","Basketball Court","Cecil Morrison Park","1332 Avenue N, Ottawa","45.41729196578509","-75.6453460422119","Full / Entier","unknown","no/non",""
"Basketball Court","basketball","Basketball Court","Frank Ryan Park","950 Alpine Avenue, Ottawa","45.356412116451104","-75.78948111672275","Full / Entier","unknown","no/non",""
"Basketball Court","basketball","Basketball Court","Reid Park","40 Reid Avenue, Ottawa","45.39755065013303","-75.7232387790382","Full / Entier","unknown","no/non",""
"Basketball Court","basketball","Basketball Court","Bellevue Manor Park","1520 Caldwell Avenue, Ottawa","45.372120515417585","-75.73947210248518","Full / Entier","unknown","no/non",""
"Basketball Court","basketball","Basketball Key","Emerald Woods Park","3795 Alderwood Street","45.34522423563963","-75.64025744545346","Key Court / Clé de basketball","unknown","no/non",""
"Basketball Court","basketball","Basketball Court","Morgan's Grant Woods Park","50 Flamborough Way, Kanata","45.34759889423676","-75.93174093472182","Full / Entier","unknown","no/non",""
"Basketball Court","basketball","Basketball Court","Elmridge Park","1841 Elmridge Drive, Gloucester","45.44363510706298","-75.6043253110941","Full / Entier","unknown","no/non",""
"Basketball Court","basketball","Basketball Court","Delorme Park","6591 Delorme Avenue, Gloucester","45.4571166688466","-75.51071666605141","Full / Entier","unknown","no/non",""
"Basketball Court","basketball","Basketball Court","St. François Park","1855 Simard Drive, Gloucester","45.451608843113995","-75.51913001121967","Full / Entier","unknown","no/non",""
"Basketball Court","basketball","Basketball Court","Sandalwood Park","2850 Sandalwood Drive, Ottawa","45.37800711306455","-75.64821366941469","Full / Entier","unknown","no/non",""
"Basketball Court","basketball","Basketball Court","Provence Park","2095 Provence Avenue, Cumberland","45.461270101427345","-75.45704124266041","Full / Entier","unknown","no/non",""
"Basketball Court","basketball","Basketball Court","Sharel Park","1900 Florida Avenue, Ottawa","45.38195024215032","-75.63934989728486","Full / Entier","unknown","no/non",""
"Basketball Court","basketball","Basketball Court","Vista Park","720 Vistapark Drive, Cumberland","45.45025668645654","-75.47123004274155","Full / Entier","unknown","no/non",""
"Basketball Court","basketball","Basketball Court","Bluegrass Park","59 Bluegrass Drive","45.285790900867205","-75.85986329458008","Full / Entier","unknown","no/non",""
"Basketball Court","basketball","Basketball Court","Elizabeth Manley Park","1161 Blohm Drive, Ottawa","45.36928394849073","-75.61920344867987","Full / Entier","unknown","no/non",""
"Basketball Court","basketball","Basketball Court","Brantwood Park","39 Onslow Crescent, Ottawa","45.40482958023502","-75.67074391800033","Small / Petit","unknown","no/non",""
"Basketball Court","basketball","Basketball Key","Black Raven Community Park","675 Dundonald Drive","45.24189219971905","-75.74092869017566","Small / Petit","unknown","no/non",""
"Basketball Court","basketball","Basketball Key","Blackburn Park","180 - 190 Glen Park Drive, Gloucester","45.429731791705045","-75.56255960531455","Key Court / Clé de basketball","unknown","no/non",""
"Basketball Court","basketball","Basketball Court","Fallingbrook Park","681 Deancourt Crescent, Cumberland","45.48120315226971","-75.48774111269796","Small / Petit","unknown","no/non",""
"Basketball Court","basketball","Basketball Court","Dragonfly Park","2920 Findlay Creek Drive, Gloucester","45.31580293433125","-75.60427300309343","Full / Entier","unknown","no/non",""
"Basketball Court","basketball","Basketball Court","Overbrook Park","33 Quill Street","45.42539354812462","-75.65611757100218","Full / Entier","unknown","no/non",""
"Basketball Court","basketball","Basketball Court","Overbrook Park","33 Quill Street","45.425156598238395","-75.65607816191067","Full / Entier","unknown","no/non",""
"Basketball Court","basketball","Basketball Court","Pebble Trail Park","6860 Pebble Trail Way","45.26361916076198","-75.5840637523686","Full / Entier","unknown","no/non",""
"Basketball Court","basketball","Basketball Court","Greely Village Park","7292 Parkway Road","45.26631279038884","-75.55116679987715","Full / Entier","unknown","yes/oui",""
"Basketball Court","basketball","Basketball Key","Fallingbrook Park","681 Deancourt Crescent, Cumberland","45.480791543423436","-75.48836377544556","Key Court / Clé de basketball","unknown","no/non",""
"Basketball Court","basketball","Basketball Court","Optimiste Park","43 Ste. Cécile Street, Vanier","45.44246527367926","-75.66992408762427","Full / Entier","unknown","no/non",""
"Basketball Court","basketball","Basketball Key","Brewer Park","100 Brewer Way, Ottawa","45.38819300863884","-75.68864336746603","Key Court / Clé de basketball","unknown","no/non",""
"Basketball Court","basketball","Basketball Court","Forbes Park","669 Paul Avenue, Ottawa","45.43972735348195","-75.64295495509765","Key Court / Clé de basketball","unknown","no/non",""
"Basketball Court","basketball","Basketball Court","Eugène Martineau Park ","710 Mikinak Road","45.45118657094333","-75.63105207456381","Full / Entier","unknown","no/non",""
"Basketball Court","basketball","Basketball Court","Eugène Martineau Park ","710 Mikinak Road","45.45118590546993","-75.63132406916048","Full / Entier","unknown","no/non",""
"Basketball Court","basketball","Basketball Court","City Centre Park","1800 City Park Drive","45.42771357043416","-75.61840361749698","Small / Petit","unknown","no/non",""
"Basketball Court","basketball","Basketball Court","Osgoode Community Centre","5660 Osgoode Main Street, Osgoode","45.14679973471905","-75.60172495963779","Full / Entier","unknown","no/non",""
"Basketball Court","basketball","Basketball Court","Queenswood Ridge Park","346 Kennedy Lane East","45.477998472394376","-75.50380158950449","Full / Entier","unknown","no/non",""
"Basketball Court","basketball","Basketball Court","Trend-Arlington Park","50 Bellman Drive, Nepean","45.328349370935655","-75.78217664924625","Full / Entier","unknown","no/non",""
"Basketball Court","basketball","Basketball Court","Raoul Wallenberg Park","397 Viewmount Drive, Nepean","45.35076183714816","-75.71636705788184","Full / Entier","unknown","no/non",""
"Basketball Court","basketball","Basketball Court","Springhurst Park","24 Brunswick Street, Ottawa","45.41273406637886","-75.67289136044997","Full / Entier","unknown","no/non",""
"Basketball Court","basketball","Basketball Court","Cattail Creek Park","38 Chimo Drive, Kanata","45.310701807943154","-75.88968682571864","Full / Entier","unknown","no/non",""
"Basketball Court","basketball","Basketball Court","Country Place Park","83 Amberwood Crescent, Nepean","45.32100309255084","-75.7080560757402","Small / Petit","unknown","no/non",""
"Basketball Court","basketball","Basketball Key","Crossing Bridge Park","27 Hobin Street, Goulbourn","45.26301134851764","-75.93512064206075","Half / Demi","unknown","no/non",""
"Basketball Court","basketball","Basketball Court","Diamond Jubilee Park","2810 Findlay Creek Drive / 4008 Kelly Farm Drive, Gloucester","45.31483176395972","-75.60994085510663","Non standard (on ice rink)","unknown","no/non",""
"Basketball Court","basketball","Basketball Court","Windsor Park Gloucester","3560 Wyman Place, Gloucester","45.34558821761284","-75.65944494428928","Full / Entier","unknown","no/non",""
"Basketball Court","basketball","Basketball Court","Canterbury Park","2185 Arch Street, Ottawa","45.38950255951175","-75.62982758100001","Full / Entier","unknown","no/non",""
"Basketball Court","basketball","Basketball Court","Dutchie's Hole Park","154 Mann Avenue","45.42090049232135","-75.66931100900241","Full / Entier","unknown","no/non",""
"Basketball Court","basketball","Basketball Key","Valin Park and South Fallingbrook Community Centre","998 Valin Street, Cumberland","45.47093768044629","-75.46254864837734","Half / Demi","unknown","yes/oui",""
"Basketball Court","basketball","Basketball Key","Valin Park and South Fallingbrook Community Centre","998 Valin Street, Cumberland","45.47088634793513","-75.46266379532878","Half / Demi","unknown","yes/oui",""
"Basketball Court","basketball","Basketball Court","Alexander Park","960 Silver Street, Ottawa","45.379854387984","-75.73133726739434","Small / Petit","unknown","no/non",""
"Basketball Court","basketball","Basketball Court","Andy Shields Park","1448 Meadow Drive","45.2608924880176","-75.55646354527006","Small / Petit","unknown","no/non",""
"Basketball Court","basketball","Basketball Key","Alvin Heights Park","352 London Terrace, Ottawa","45.451400128893475","-75.65081390678495","Key Court / Clé de basketball","unknown","no/non",""
"Basketball Court","basketball","Basketball Key","Amberway Park","11 Denham Way, Goulbourn","45.27679929412873","-75.91917014868942","Key Court / Clé de basketball","unknown","no/non",""
"Basketball Court","basketball","Basketball Key","Aladdin Park","3939 Albion Road","45.34099703494898","-75.63519652938221","Key Court / Clé de basketball","unknown","no/non",""
"Basketball Court","basketball","Basketball Key","Bob Rainboth Park","2193 East Acres Road, Gloucester","45.44733399810367","-75.58882590404774","Key Court / Clé de basketball","unknown","yes/oui",""
"Basketball Court","basketball","Basketball Court","Centennial Park","5572 Doctor Leach Drive, Rideau","45.22251569524492","-75.68717830327252","Non standard (on ice rink)","unknown","no/non",""
"Basketball Court","basketball","Basketball Key","Arcadia Park","175 Calvington Avenue","45.30455670576791","-75.93498641129942","Key Court / Clé de basketball","unknown","yes/oui",""
"Basketball Court","basketball","Basketball Court","Baden Park","3900 Autumnwood Street, Gloucester","45.34038264324184","-75.64035583074002","Small / Petit","unknown","no/non",""
"Basketball Court","basketball","Basketball Key","Birdland Park","3 Whippoorwill Drive, Gloucester","45.45203658392111","-75.61504515800947","Key Court / Clé de basketball","unknown","no/non",""
"Basketball Court","basketball","Basketball Key","Chapman Mills Park","139 Windhurst Drive, Nepean","45.27887631855795","-75.71659787011262","Key Court / Clé de basketball","unknown","no/non",""
"Basketball Court","basketball","Basketball Key","Champagne Park","1861 Markwell Crescent, Gloucester","45.454684657614486","-75.51572688569962","Key Court / Clé de basketball","unknown","no/non",""
"Basketball Court","basketball","Basketball Court","Chapel Hill Park","1556 Forest Valley Drive, Gloucester","45.45066073926537","-75.53838559157425","Key Court / Clé de basketball","unknown","no/non",""
"Basketball Court","basketball","Basketball Key","Chapel Hill Park","1556 Forest Valley Drive, Gloucester","45.450618202750874","-75.53844838560926","Key Court / Clé de basketball","unknown","no/non",""
"Basketball Court","basketball","Basketball Court","Charing Park","37 Chartwell Avenue, Nepean","45.33206759624332","-75.7660476516448","Small / Petit","unknown","no/non",""
"Basketball Court","basketball","Basketball Court","Chaudière Park","68 Elm Street, Ottawa","45.40983535384698","-75.71377381209943","Half / Demi","unknown","no/non",""
"Basketball Court","basketball","Basketball Court","Chapel Hill Park","1556 Forest Valley Drive, Gloucester","45.45059973315415","-75.5383223582631","Key Court / Clé de basketball","unknown","no/non",""
"Basketball Court","basketball","Basketball Court","Carleton Heights Park","1665 Apeldoorn Avenue, Ottawa","45.35927989073865","-75.70155903739726","Small / Petit","unknown","yes/oui",""
"Basketball Court","basketball","Basketball Court","Doug Rivington Park","701 Meadowridge Circle","45.34363092254659","-76.02587037445721","Small / Petit - Non standard","unknown","no/non",""
"Basketball Court","basketball","Basketball Court","Doug Frobel Park","16 Rowley Avenue, Nepean","45.34902176414885","-75.74172950321716","Full / Entier","unknown","no/non",""
"Basketball Court","basketball","Basketball Key","Doug Thompson Pathway","Leitrim Road, Gloucester","45.1439137846335","-75.61150272894164","Key Court / Clé de basketball","unknown","no/non",""
"Basketball Court","basketball","Basketball Key","Tulip Tree Park","520 Tulip Tree Way","45.433391082760494","-75.51330582000772","Half / Demi","unknown","yes/oui",""
"Basketball Court","basketball","Basketball Key","Drumlins Park","12 Drumlins Avenue, Nepean","45.2744266878285","-75.7059057137659","Key Court / Clé de basketball","unknown","no/non",""
"Basketball Court","basketball","Basketball Key","William Bradley Park","22 Porter Street","45.247374901351435","-75.91450090077697","Half / Demi","unknown","yes/oui",""
"Basketball Court","basketball","Basketball Key","Patrick Dugas Park","550 Compass Street","45.435774517926305","-75.50966218224842","Half / Demi","unknown","yes/oui",""
"Basketball Court","basketball","Basketball Key","Doug Thompson Pathway","Leitrim Road, Gloucester","45.14394407802592","-75.61126506526018","Key Court / Clé de basketball","unknown","no/non",""
"Basketball Court","basketball","Basketball Key","Wilfred Murray Park / R.J. Kennedy Community Hall and Arena","1115 Dunning Road, Cumberland","45.51367547704708","-75.40292376819956","Half / Demi","unknown","no/non",""
"Basketball Court","basketball","Basketball Key","Houlahan Park and West Houlahan Park","44 Tartan Drive, Nepean","45.267125225763266","-75.7632184858109","Key Court / Clé de basketball","unknown","no/non",""
"Basketball Court","basketball","Basketball Court","Isaie Savage Park","114 Saphir Avenue, Cumberland","45.42592530400792","-75.48579101304827","Small / Petit","unknown","no/non",""
"Basketball Court","basketball","Basketball Key","Ivy and Gordon Scharf Park","5535 Pettapiece Crescent, Goulbourn","45.22154326846622","-75.69625416764093","Key Court / Clé de basketball","unknown","yes/oui",""
"Basketball Court","basketball","Basketball Key","Joan O'Malley Park","4310 Shoreline Drive, Gloucester","45.2778443057932","-75.68725107399705","Key Court / Clé de basketball","unknown","no/non",""
"Basketball Court","basketball","Basketball Key","Harbour View Park","150 Harbour View Street, Nepean","45.269094160610756","-75.70811556846651","Key Court / Clé de basketball","unknown","yes/oui",""
"Basketball Court","basketball","Basketball Key","Edwards Park","1081 Yorks Corners Road, Osgoode","45.321781957678155","-75.46490607292294","Key Court / Clé de basketball","unknown","no/non",""
"Basketball Court","basketball","Basketball Key","Eastvale Park","740 Eastvale Drive, Gloucester","45.459201174792824","-75.59838422660579","Key Court / Clé de basketball","unknown","no/non",""
"Basketball Court","basketball","Basketball Court","Steve MacLean Park","1190 Deer Park Road, Nepean","45.36264122184953","-75.71674164367722","Full / Entier","unknown","no/non",""
"Basketball Court","basketball","Basketball Court","Ed Hollyer Park","55 Bellrock Drive","45.31730329781248","-75.89389287801608","Small / Petit","unknown","no/non",""
"Basketball Court","basketball","Basketball Key","Echo Park","6698 Marina Drive, Rideau","45.16898964990034","-75.6395457946955","Key Court / Clé de basketball","unknown","no/non",""
"Basketball Court","basketball","Basketball Court","Coronation Park","442 Coronation Avenue, Ottawa","45.40897281281606","-75.65150420189367","Full / Entier","unknown","no/non",""
"Basketball Court","basketball","Basketball Court","David Shentow Park","590 Tillbury Avenue, Ottawa","45.37848013225147","-75.75986342285347","Full / Entier","unknown","no/non",""
"Basketball Court","basketball","Basketball Court","Deevy Pines Park","65 Stonehaven Drive, Kanata","45.28976098953891","-75.85807501205579","Full / Entier","unknown","no/non",""
"Basketball Court","basketball","Basketball Court","Bryanston Gate Park","23 Alon Street","45.27828645542583","-75.92768711632233","Full / Entier","unknown","no/non",""
"Basketball Court","basketball","Basketball Key","Harkness Park","6020 Piperville Road, Gloucester","45.36497937891284","-75.46348923478547","Key Court / Clé de basketball","unknown","no/non",""
"Basketball Court","basketball","Basketball Court","Hampton Park","645 Parkview Road, Ottawa","45.38727659487257","-75.73795373765262","Small / Petit","unknown","no/non",""
"Basketball Court","basketball","Basketball Court","Harold Barnhart Park","5650 Scobie Crescent, Osgoode","45.23009229562692","-75.642226001889","Small / Petit","unknown","no/non",""
