neighbourhood_id,neighbourhood_name,name,shop_type,category,brand,address,latitude,longitude,osm_id,osm_type
the-glebe,The Glebe,ABBAS GROCERY,,grocery,,344 BELL ST S,45.4020648,-75.7032878,,
the-glebe,The Glebe,ERLING'S VARIETY,,grocery,,225 STRATHCONA AVE,45.407634,-75.690508,,
the-glebe,The Glebe,I HEART NUTS,,grocery,,1000 EXHIBITION WAY,45.4000351,-75.6828265,,
the-glebe,The Glebe,IL NEGOZIO NICASTRO,,grocery,,792 BANK ST,45.402908,-75.6884398,,
the-glebe,The Glebe,LOBLAWS,,grocery,,64 ISABELLA ST,45.4109012,-75.6862105,,
the-glebe,The Glebe,METRO,,grocery,,774 BANK ST,45.4033142,-75.6887818,,
the-glebe,The Glebe,O'CONNOR CONFECTIONERY,,grocery,,41 THIRD AVE,45.4046064,-75.6847735,,
the-glebe,The Glebe,QUICKIE CONVENIENCE STORES,,grocery,,655 BRONSON AVE,45.403433,-75.7008456,,
the-glebe,The Glebe,SEOUL MART,,grocery,,22 PRETORIA AVE,45.41029,-75.6853312,,
the-glebe,The Glebe,SEOUL MART - SPECIAL EVENT VENDOR,,grocery,,450 QUEEN ELIZABETH DRIVEWAY,45.3993722,-75.682328,,
the-glebe,The Glebe,SHOPPERS DRUG MART,,grocery,,700 BANK ST,45.4048513,-75.689749,,
the-glebe,The Glebe,SISTERS MART,,grocery,,793 BANK ST,45.4029428,-75.6880306,,
the-glebe,The Glebe,WHOLE FOODS MARKET,,grocery,,951 BANK ST,45.3993485,-75.6854996,,
old-ottawa-east,Old Ottawa East,180 FOOD MARKET,,grocery,,180 LEES AVE,45.4153548,-75.6708025,,
old-ottawa-east,Old Ottawa East,DIXIE DAIRY CONFECTIONERY,,grocery,,101 MAIN ST,45.4116429,-75.6790988,,
old-ottawa-east,Old Ottawa East,MEDINA FRIED CHICKEN / COSMO MART / RED FIRE,,grocery,,170 LEES AVE,45.415154,-75.67175,,
old-ottawa-east,Old Ottawa East,NU GROCERY MAIN INC.,,grocery,,143 MAIN ST,45.415071,-75.681468,,
westboro,Westboro,AL-KALAA MINI MARKET,,grocery,,557 KIRKWOOD AVE,45.3891527,-75.7429241,,
westboro,Westboro,CIRCLE K,,grocery,,256 RICHMOND RD,45.393417,-75.750335,,
westboro,Westboro,CIRCLE K,,grocery,,1859 CARLING AVE,45.3763141,-75.7573125,,
westboro,Westboro,DOLLARAMA,,grocery,,2121 CARLING AVE,45.3730814,-75.7682887,,
westboro,Westboro,ESSO - ON THE RUN - TIM HORTON'S,,grocery,,1859 CARLING AVE,45.376346,-75.757319,,
westboro,Westboro,FARM BOY,,grocery,,317 MCRAE,45.3960489,-75.7498115,,
westboro,Westboro,FOOD BASICS,,grocery,,667 KIRKWOOD AVE,45.3863658,-75.7388344,,
westboro,Westboro,LOBLAWS,,grocery,,2085 CARLING AVE,45.3723082,-75.7675725,,
westboro,Westboro,PRODUCE DEPOT,,grocery,,1855 CARLING AVE,45.376684,-75.7569011,,
westboro,Westboro,PRODUCE DEPOT,,grocery,,1855 CARLING AVE,45.376684,-75.7569011,,
westboro,Westboro,REAL CANADIAN SUPERSTORE,,grocery,,190 RICHMOND RD,45.3942654,-75.7473437,,
westboro,Westboro,REXALL DRUGSTORE,,grocery,,2121 CARLING AVE,45.3730814,-75.7682887,,
westboro,Westboro,SHOPPERS DRUG MART,,grocery,,410 RICHMOND RD,45.3904343,-75.7569586,,
byward-market,Byward Market,BYWARD FRUIT MARKET,,grocery,,36 BY WARD MARKET SQUARE,45.4276028,-75.692953,,
byward-market,Byward Market,CIRCLE K,,grocery,,333 RIDEAU STREET,45.429691,-75.6843595,,
byward-market,Byward Market,DOLLARAMA,,grocery,,305 RIDEAU STREET,45.429285,-75.6855888,,
byward-market,Byward Market,DONNA'S FRIENDLY STORE,,grocery,,157 CATHCART ST,45.4336358,-75.695023,,
byward-market,Byward Market,GIANT TIGER,,grocery,,98 GEORGE ST,45.427402,-75.6905046,,
byward-market,Byward Market,LA LATINA GROCERIES,,grocery,,217 DALHOUSIE ST,45.431669,-75.6933437,,
byward-market,Byward Market,LOBLAWS,,grocery,,363 RIDEAU STREET,45.430173,-75.683903,,
byward-market,Byward Market,METRO,,grocery,,255 RIDEAU STREET,45.4284,-75.68705,,
byward-market,Byward Market,MICHEL'S DEPANNEUR,,grocery,,262 DALHOUSIE ST,45.4304773,-75.6926245,,
byward-market,Byward Market,REXALL,,grocery,,753 MONTREAL ROAD,45.4450941,-75.6365507,,
byward-market,Byward Market,UNIVERSAL GROCERY,,grocery,,140 GEORGE ST,45.4279465,-75.6892452,,
byward-market,Byward Market,XMARKET RIDEAU,,grocery,,73 RIDEAU ST,45.4262152,-75.6926662,,
centretown,Centretown,AH SO SUSHI (FARM BOY SUSHI BAR),,grocery,,193 METCALFE ST,45.4187946,-75.6929885,,
centretown,Centretown,AISLE 24,,grocery,,105 CHAMPAGNE AVE S,45.3989201,-75.7114228,,
centretown,Centretown,ARYA FOOD MARKET,,grocery,,508 GLADSTONE AVE,45.4099345,-75.6982626,,
centretown,Centretown,BRONSON PLACE TUCK SHOP,,grocery,,440 GLOUCESTER ST,45.4144824,-75.7064979,,
centretown,Centretown,CIRCLE K,,grocery,,388 ELGIN ST,45.4144881,-75.6876387,,
centretown,Centretown,CIRCLE K,,grocery,,160 ELGIN STREET,45.4197494,-75.6928817,,
centretown,Centretown,CIRCLE K / ESSO,,grocery,,450 BANK ST,45.411772,-75.6937716,,
centretown,Centretown,DI RIENZOS GROCERY,,grocery,,111 BEECH ST,45.4000201,-75.7120537,,
centretown,Centretown,DOLLARAMA,,grocery,,317 BANK ST,45.4145724,-75.6953482,,
centretown,Centretown,DOLLARAMA,,grocery,,255 ELGIN ST,45.4183701,-75.6906583,,
centretown,Centretown,DRIVE THRU CONVENIENCE STORE,,grocery,,357 PRESTON ST,45.4010349,-75.7094477,,
centretown,Centretown,FARM BOY,,grocery,,193 METCALFE ST,45.4187946,-75.6929885,,
centretown,Centretown,FOOD BASICS,,grocery,,338 QUEEN ST,45.41798,-75.70542,,
centretown,Centretown,KABOORA CONVENIENCE STORE,,grocery,,370 BANK ST,45.4136008,-75.6949735,,
centretown,Centretown,LAURIER CONVENIENCE,,grocery,,340 LAURIER AVE W,45.4180234,-75.6999319,,
centretown,Centretown,LIM BANGKOK GROCERY,,grocery,,794 SOMERSET ST W,45.4095761,-75.7101316,,
centretown,Centretown,MAC'S SUSHI,,grocery,,160 ELGIN ST,45.4197494,-75.6928817,,
centretown,Centretown,MACEWEN PETROLEUM-QUICKIE CONVENIENT STORE,,grocery,,512 BANK ST,45.4098726,-75.69262,,
centretown,Centretown,MANPHONG SUPERMARKET,,grocery,,775 SOMERSET ST W,45.4101418,-75.7096661,,
centretown,Centretown,MERCATO ZACCONI,,grocery,,215 PRESTON ST,45.4058749,-75.712216,,
centretown,Centretown,PETRO CANADA,,grocery,,470 BRONSON AVE,45.4072541,-75.7037806,,
centretown,Centretown,PETRO CANADA,,grocery,,676 SOMERSET ST W,45.4111151,-75.7059664,,
centretown,Centretown,PHUOC-LOI GROCERY,,grocery,,791 SOMERSET ST W,45.4097509,-75.7104388,,
centretown,Centretown,PRESTON FOOD MARKET,,grocery,,71 PRESTON STREET,45.4096406,-75.7148187,,
centretown,Centretown,QUICKIE CONVENIENCE STORES,,grocery,,348 ELGIN ST,45.4157122,-75.6886654,,
centretown,Centretown,QUICKIE CONVENIENCE STORES,,grocery,,435 ALBERT ST,45.4173397,-75.7067691,,
centretown,Centretown,QUICKIE CONVENIENCE STORES,,grocery,,163 BELL ST N,45.4067337,-75.7056621,,
centretown,Centretown,QUICKIE CONVENIENCE STORES,,grocery,,332 BANK ST,45.4141534,-75.6955097,,
centretown,Centretown,QUICKIE CONVINIENCE STORE,,grocery,,500 PRESTON ST,45.3981787,-75.7082322,,
centretown,Centretown,REXALL,,grocery,,160 ELGIN STREET,45.4197494,-75.6928817,,
centretown,Centretown,REXALL DRUG STORE,,grocery,,407 LAURIER AVE W,45.4174285,-75.7025666,,
centretown,Centretown,REXALL PHARMA PLUS,,grocery,,240 SPARKS ST,45.420296,-75.7024018,,
centretown,Centretown,ROMA CONFECTIONERY,,grocery,,258 ROCHESTER ST,45.406023,-75.7104354,,
centretown,Centretown,ROYAL VARIETY,,grocery,,260 BANK ST,45.4160833,-75.6971684,,
centretown,Centretown,SHIRAZ GROCERY,,grocery,,725 SOMERSET ST W,45.4106368,-75.7083878,,
centretown,Centretown,SHOPPER'S DRUG MART,,grocery,,455 BANK ST,45.4119191,-75.6931575,,
centretown,Centretown,SHOPPERS DRUG MART,,grocery,,111 ALBERT ST,45.4216242,-75.6974725,,
centretown,Centretown,SHOPPERS DRUG MART,,grocery,,174 BANK ST,45.4182105,-75.6991715,,
centretown,Centretown,SUPER HUNG PHAT GROCERY,,grocery,,139 ROCHESTER ST,45.4088823,-75.7117215,,
centretown,Centretown,SUPER SWEET MART,,grocery,,237 ROCHESTER ST,45.4065568,-75.7103339,,
centretown,Centretown,WELLINGTON FOOD MARKET,,grocery,,171 BANK ST,45.4186492,-75.6977959,,
centretown,Centretown,YOUR INDEPENDENT GROCER - MASSINE'S,,grocery,,296 BANK ST,45.4149887,-75.6963375,,
old-ottawa-south,Old Ottawa South,OTTAWA SOUTH GROCERY,,grocery,,431 SUNNYSIDE AVE,45.3916938,-75.689862,,
old-ottawa-south,Old Ottawa South,PRIMA GROCERY - OTTAWA SOUTH GROCETERIA,,grocery,,431 SUNNYSIDE AVE,45.3916842,-75.6898567,,
old-ottawa-south,Old Ottawa South,QUICKIE CONVENIENCE STORES,,grocery,,1166 BANK STREET,45.3924983,-75.6824157,,
old-ottawa-south,Old Ottawa South,SHOPPERS DRUG MART,,grocery,,1080 BANK ST,45.3943503,-75.6838382,,
riverside-park,Riverside Park,AISLE 24,,grocery,,770 BROOKFIELD RD,45.3725996,-75.6883043,,
riverside-park,Riverside Park,BOSBAN MART INC.,,grocery,,2960 RIVERSIDE DR.,45.3698605,-75.6912714,,
riverside-park,Riverside Park,MOONEY'S BAY GROCETERIA,,grocery,,2660 NORBERRY CRESCENT,45.368169,-75.6833812,,
hintonburg,Hintonburg,ALJAZEERA FOOD MART,,grocery,,1101 WELLINGTON ST W,45.4028466,-75.7257886,,
hintonburg,Hintonburg,CIRCLE K,,grocery,,1023 WELLINGTON ST W,45.4047842,-75.723925,,
hintonburg,Hintonburg,DOLLARAMA,,grocery,,1050 SOMERSET ST W,45.4065044,-75.7195173,,
hintonburg,Hintonburg,GIANT TIGER,,grocery,,1085 WELLINGTON ST W,45.4032386,-75.7255285,,
hintonburg,Hintonburg,LITTLE MAC'S,,grocery,,991 WELLINGTON ST W,45.4055399,-75.7234739,,
hintonburg,Hintonburg,MARCHE HINTONBURG MARKET SUPERMARKET,,grocery,,1059 WELLINGTON ST,45.4039768,-75.724614,,
hintonburg,Hintonburg,PETRO CANADA,,grocery,,390 PARKDALE AVE,45.4009345,-75.7295664,,
hintonburg,Hintonburg,QUICKIE CONVENIENCE STORES,,grocery,,255 PARKDALE AVE,45.404904,-75.731171,,
hintonburg,Hintonburg,RED ROCK CONVENIENCE & CAFE,,grocery,,86 FORWARD AVE,45.4093771,-75.7332938,,
hintonburg,Hintonburg,REDROCK CONVENIENCE & CAFE,,grocery,,86 FORWARD AVE,45.4093771,-75.7332938,,
hintonburg,Hintonburg,REXALL DRUGSTORE,,grocery,,1190 WELLINGTON ST W,45.4004467,-75.7294935,,
hintonburg,Hintonburg,REXALL DRUGSTORE,,grocery,,1620 SCOTT ST,45.4035435,-75.7330852,,
hintonburg,Hintonburg,SILVER CITY FOOD MARKET,,grocery,,86 FORWARD AVE,45.4093943,-75.7332684,,
wellington-village,Wellington Village,ESSO,,grocery,,479 MARCH RD,45.397267,-75.741709,,
wellington-village,Wellington Village,METRO,,grocery,,345 CARLETON AVE,45.3983659,-75.7404881,,
kanata,Kanata,AFRICAN FOOD MARKET,,grocery,,462 HAZELDEAN RD,45.2981401,-75.8872192,,
kanata,Kanata,BULK BARN,,grocery,,457 HAZELDEAN RD,45.2994233,-75.8863655,,
kanata,Kanata,CANADIAN TIRE,,grocery,,8181 CAMPEAU DR,45.3068951,-75.9185459,,
kanata,Kanata,CANADIAN TIRE,,grocery,,500 TERRY FOX DR,45.3086924,-75.9168155,,
kanata,Kanata,CANADIAN TIRE GAS,,grocery,,1636 BANK ST,45.3068987,-75.918637,,
kanata,Kanata,CIRCLE K,,grocery,,62 STONEHAVEN DR,45.2923085,-75.8578066,,
kanata,Kanata,CIRCLE K,,grocery,,13 KAKULU ROAD,45.3095761,-75.8812653,,
kanata,Kanata,CIRCLE K,,grocery,,100 CASTLEFRANK RD,45.293711,-75.8818123,,
kanata,Kanata,CIRCLE K,,grocery,,907 EAGLESON RD,45.2704335,-75.8568898,,
kanata,Kanata,CIRCLE K,,grocery,,1031 TERON RD,45.3305915,-75.900366,,
kanata,Kanata,COSTCO,,grocery,,770 SILVER SEVEN RD,45.3027368,-75.9130881,,
kanata,Kanata,COSTCO,,grocery,,770 SILVER SEVEN RD,45.3027368,-75.9130881,,
kanata,Kanata,COSTCO,,grocery,,770 SILVER SEVEN RD,45.3026258,-75.9131164,,
kanata,Kanata,COSTCO,,grocery,,770 SILVER SEVEN RD,45.3027368,-75.9130881,,
kanata,Kanata,ESSO,,grocery,,44 EDGEWATER ST,45.2975217,-75.9010391,,
kanata,Kanata,ESSO,,grocery,,501 TERRY FOX DR,45.310111,-75.918391,,
kanata,Kanata,ESSO - CIRCLE K,,grocery,,401 HAZELDEAN RD,45.3039465,-75.8773426,,
kanata,Kanata,FARM BOY,,grocery,,499 TERRY FOX DR,45.3106652,-75.9196033,,
kanata,Kanata,FARM BOY,,grocery,,457 HAZELDEAN RD,45.2994233,-75.8863655,,
kanata,Kanata,FARM BOY,,grocery,,499 TERRY FOX DR,45.3106652,-75.9196033,,
kanata,Kanata,FARM BOY,,grocery,,457 HAZELDEAN RD,45.2994233,-75.8863655,,
kanata,Kanata,FARM BOY KANATA,,grocery,,700 TERRY FOX DR,45.2923904,-75.8959103,,
kanata,Kanata,FOOD BASICS,,grocery,,150 KATIMAVIK RD,45.3124188,-75.8958402,,
kanata,Kanata,ISTANBUL FOOD MART,,grocery,,200 KATIMAVIK RD,45.3047505,-75.9059218,,
kanata,Kanata,KANATA PHARMASAVE,,grocery,,99 KAKULU RD,45.3042405,-75.8947172,,
kanata,Kanata,KOWLOON SUPERMARKET KANATA,,grocery,,5108 KANATA AVE.,45.3223982,-75.9258286,,
kanata,Kanata,LOBLAWS,,grocery,,200 EARL GREY DR,45.3099428,-75.9166182,,
kanata,Kanata,MAC'S,,grocery,,500 HAZELDEAN RD,45.2933502,-75.8937131,,
kanata,Kanata,METRO,,grocery,,4048 CARLING AVE,45.3368085,-75.9072201,,
kanata,Kanata,MORNING OWL COFFEEHOUSE + VARIETY,,grocery,,1047 CANADIAN SHIELD AVE,45.3149068,-75.9015307,,
kanata,Kanata,PETRO CANADA,,grocery,,570 TERRY FOX DR,45.3022485,-75.907912,,
kanata,Kanata,PETRO CANADA,,grocery,,120 EAGLESON RD,45.3099818,-75.8807491,,
kanata,Kanata,PETRO CANADA,,grocery,,7 CARBROOKE ST,45.3023544,-75.8791186,,
kanata,Kanata,PETRO CANADA,,grocery,,500 EAGLESON RD,45.2905187,-75.8701199,,
kanata,Kanata,QUICKIE CONVENIENCE STORES,,grocery,,800 STONEHAVEN DR,45.2811801,-75.8379991,,
kanata,Kanata,REAL CANADIAN SUPERSTORE,,grocery,,760 EAGLESON RD,45.2827733,-75.8665635,,
kanata,Kanata,REXALL,,grocery,,4048 CARLING AVE,45.3368085,-75.9072201,,
kanata,Kanata,REXALL,,grocery,,832 MARCH RD,45.356811,-75.933407,,
kanata,Kanata,REXALL DRUGSTORE,,grocery,,300 EAGLESON RD,45.3023709,-75.8777644,,
kanata,Kanata,SHOPPERS DRUG MART,,grocery,,1102 KLONDIKE RD,45.3547474,-75.9330106,,
kanata,Kanata,SHOPPERS DRUG MART,,grocery,,680 EAGLESON ROAD,45.2873726,-75.8684677,,
kanata,Kanata,SHOPPERS DRUG MART,,grocery,,420 HAZELDEAN RD,45.3014469,-75.8805222,,
kanata,Kanata,SOBEYS,,grocery,,700 TERRY FOX DR,45.292704,-75.895607,,
kanata,Kanata,SOBEYS,,grocery,,840 MARCH ROAD,45.3565983,-75.9344608,,
kanata,Kanata,SPICE WORLD SUPERMARKET,,grocery,,62 STONEHAVEN DR,45.2922842,-75.8577236,,
kanata,Kanata,SWEET ESCAPE CANDY EMPORIUM,,grocery,,8555 CAMPEAU DR,45.2979007,-75.9375927,,
kanata,Kanata,T&T SUPERMARKET,,grocery,,300 EAGLESON RD,45.3023709,-75.8777644,,
kanata,Kanata,THE INDIAN SUPERMARKET KANATA,,grocery,,474 HAZELDEAN RD,45.2974021,-75.8878894,,
kanata,Kanata,TIME SAVER,,grocery,,350 TERRY FOX DR,45.3518937,-75.9186706,,
kanata,Kanata,ULTRAMAR ON THE RUN,,grocery,,480 HAZELDEAN ROAD,45.2965292,-75.8908625,,
stittsville,Stittsville,BULK BARN,,grocery,,5375 FERNBANK RD,45.273385,-75.8713253,,
stittsville,Stittsville,CABELA'S RETAIL CANADA INC.,,grocery,,3065 PALLADIUM DR,45.2898892,-75.9321211,,
stittsville,Stittsville,CIRCLE K,,grocery,,1 HOBIN ST,45.2647354,-75.9292087,,
stittsville,Stittsville,DOLLARAMA,,grocery,,1300 STITTSVILLE MAIN ST,45.2656448,-75.9290512,,
stittsville,Stittsville,ESSO WAYPOINT STITTSVILLE,,grocery,,5899 HAZELDEAN RD,45.2779259,-75.9210034,,
stittsville,Stittsville,FARM BOY STITTSVILLE,,grocery,,6315 HAZELDEAN RD,45.2664584,-75.9409909,,
stittsville,Stittsville,FOOD BASICS,,grocery,,5703 HAZELDEAN RD,45.2852428,-75.9135979,,
stittsville,Stittsville,GIANT TIGER,,grocery,,6081 HAZELDEAN RD,45.2724542,-75.9329283,,
stittsville,Stittsville,GREEN FRESH SUPERMARKET,,grocery,,5487 HAZELDEAN RD,45.2905137,-75.9041546,,
stittsville,Stittsville,M&M FOOD MARKET,,grocery,,1144 TERRY FOX DRIVE,45.2767818,-75.8748122,,
stittsville,Stittsville,MACEWEN PETROLEUM,,grocery,,2070 CARP RD,45.2756404,-75.9496328,,
stittsville,Stittsville,NO FRILLS,,grocery,,30 IBER RD,45.2807807,-75.9127044,,
stittsville,Stittsville,PETRO CANADA,,grocery,,6250 HAZELDEAN RD,45.2679533,-75.9382215,,
stittsville,Stittsville,PETRO CANADA,,grocery,,6061 HAZELDEAN RD,45.2725313,-75.9306396,,
stittsville,Stittsville,SHOPPERS DRUG MART,,grocery,,1300 STITTSVILLE MAIN ST,45.2656448,-75.9290512,,
stittsville,Stittsville,STITTSVILLE DRUG MART IDA,,grocery,,1250 STITTSVILLE MAIN ST,45.2688839,-75.93083,,
stittsville,Stittsville,STITTSVILLE FARMERS' MARKET,,grocery,,6154 ABBOTT ST E,45.2588226,-75.9201954,,
stittsville,Stittsville,ULTRAMAR ON THE RUN,,grocery,,5943 HAZELDEAN RD,45.2763548,-75.9235742,,
stittsville,Stittsville,WALMART,,grocery,,500 EARL GREY DR,45.2751665,-75.872314,,
stittsville,Stittsville,WALMART,,grocery,,5357 FERNBANK RD,45.2761692,-75.8735602,,
stittsville,Stittsville,YOUR INDEPENDENT GROCER - BROWN'S,,grocery,,1251 STITTSVILLE MAIN ST,45.268974,-75.9284036,,
alta-vista,Alta Vista,A & M CONFECTIONERY,,grocery,,1499 CLEMENTINE BOULEVARD,45.3827358,-75.6739472,,
alta-vista,Alta Vista,AINEE'S CONVENIENCE STORE,,grocery,,1016 PLEASANT PARK RD,45.3952009,-75.6223817,,
alta-vista,Alta Vista,ALTA JUBA SUPERMARKET,,grocery,,2925 ALBION RD N,45.3718651,-75.652455,,
alta-vista,Alta Vista,AMEER GROCERIES AND MEAT SHOP,,grocery,,1800 BANK ST,45.3715892,-75.6643203,,
alta-vista,Alta Vista,BAMBEENO'S TUCK SHOP,,grocery,,2201 RIVERSIDE DR,45.3884039,-75.6746972,,
alta-vista,Alta Vista,BASHAYER CONVENIENCE STORE,,grocery,,1785 FROBISHER LN,45.4013491,-75.6655629,,
alta-vista,Alta Vista,BOSBAN MART INC,,grocery,,1760 ST. LAURENT BLVD,45.4046083,-75.6270524,,
alta-vista,Alta Vista,BULK BARN,,grocery,,2269 RIVERSIDE DR,45.3857215,-75.6783285,,
alta-vista,Alta Vista,BULK BARN,,grocery,,197 TRAINYARDS DR,45.4115224,-75.6383346,,
alta-vista,Alta Vista,CANADIAN TIRE,,grocery,,1170 HERON RD,45.3777662,-75.6681146,,
alta-vista,Alta Vista,CEDARS & CO. FOOD MARKET,,grocery,,1793 KILBORN AVENUE,45.3880541,-75.6454338,,
alta-vista,Alta Vista,CHUCK'S DELI & CONVENIENCE,,grocery,,100 TRAINYARDS DR,45.4134312,-75.6449593,,
alta-vista,Alta Vista,CIRCLE K,,grocery,,2213 ARCH STREET,45.3895238,-75.6304321,,
alta-vista,Alta Vista,CIRCLE K,,grocery,,1600 BANK STREET,45.3777288,-75.6675807,,
alta-vista,Alta Vista,CIRCLE K,,grocery,,1420 WALKLEY RD,45.3734589,-75.6535775,,
alta-vista,Alta Vista,CIRCLE K,,grocery,,4000 BRIDLE PATH DR,45.3484031,-75.6455743,,
alta-vista,Alta Vista,CONNOR AND KENNEDY'S NO FRILLS,,grocery,,2681 ALTA VISTA DR,45.3722066,-75.6633286,,
alta-vista,Alta Vista,DOLLARAMA,,grocery,,1670 HERON RD,45.3792083,-75.644858,,
alta-vista,Alta Vista,DOLLARAMA,,grocery,,2515 BANK ST,45.3546528,-75.6449325,,
alta-vista,Alta Vista,DOLLARAMA,,grocery,,500 TERMINAL AVE,45.4144745,-75.6471402,,
alta-vista,Alta Vista,DOLLARAMA,,grocery,,1910 ST LAURENT BLVD,45.3994126,-75.6238443,,
alta-vista,Alta Vista,DOLLARAMA,,grocery,,2679 ALTA VISTA DR,45.372543,-75.6631,,
alta-vista,Alta Vista,ESSO/CIRCLE K,,grocery,,1970 WALKLEY RD,45.3834035,-75.6310185,,
alta-vista,Alta Vista,FARM BOY,,grocery,,830 BELFAST RD,45.412515,-75.6380428,,
alta-vista,Alta Vista,FARM BOY,,grocery,,830 BELFAST RD,45.412515,-75.6380428,,
alta-vista,Alta Vista,FARM BOY,,grocery,,665 INDUSTRIAL AVE,45.4108686,-75.6394562,,
alta-vista,Alta Vista,FARM BOY,,grocery,,1500 BANK ST,45.3808332,-75.6694123,,
alta-vista,Alta Vista,FOOD BASICS,,grocery,,1670 HERON RD,45.379325,-75.6431865,,
alta-vista,Alta Vista,GEELAND INTERNATIONAL GROCERY,,grocery,,1620 WALKLEY RD,45.3773624,-75.6450154,,
alta-vista,Alta Vista,HEALTHY PLANET,,grocery,,590 INDUSTRIAL AVE,45.4107468,-75.6425309,,
alta-vista,Alta Vista,LAURA'S YOUR INDEPENDANT GROCER,,grocery,,1910 ST. LAURENT BOULEVARD,45.3994126,-75.6238443,,
alta-vista,Alta Vista,LOBLAWS,,grocery,,1980 BASELINE RD,45.3981214,-75.6240935,,
alta-vista,Alta Vista,M.H TUCK SHOP,,grocery,,1551 RIVERSIDE DR,45.4084827,-75.6627194,,
alta-vista,Alta Vista,M&M FOOD MARKET,,grocery,,197 TRAINYARDS DR,45.4115224,-75.6383346,,
alta-vista,Alta Vista,MACEWEN PETROLEUM,,grocery,,1515 ST. LAURENT BOULEVARD,45.4122577,-75.6301301,,
alta-vista,Alta Vista,MACEWEN PETROLEUM,,grocery,,5546 ALBION RD,45.4122577,-75.6301301,,
alta-vista,Alta Vista,MANGOSTEEN,,grocery,,1742 BANK ST,45.3738715,-75.6656442,,
alta-vista,Alta Vista,METRO,,grocery,,1705 MERIVALE RD,45.389498,-75.619287,,
alta-vista,Alta Vista,NEW MIDDLEAST SUPERMARKET,,grocery,,1755 BANK ST,45.3737361,-75.6644327,,
alta-vista,Alta Vista,PETRO CANADA,,grocery,,1847 BANK ST,45.3701277,-75.662761,,
alta-vista,Alta Vista,PETRO CANADA,,grocery,,1740 ST. LAURENT BOULEVARD,45.405315,-75.62679,,
alta-vista,Alta Vista,PIONEER - ON THE RUN,,grocery,,631 INDUSTRIAL AVE,45.4112034,-75.6409101,,
alta-vista,Alta Vista,QUICKIE CONVENIENCE STORES,,grocery,,1034 PLEASANT PARK RD,45.395459,-75.621428,,
alta-vista,Alta Vista,QUICKIE CONVENIENCE STORES,,grocery,,1780 HERON RD,45.3802893,-75.6395713,,
alta-vista,Alta Vista,QUICKIE CONVENIENCE STORES,,grocery,,119 MANN AVE,45.3799867,-75.6319298,,
alta-vista,Alta Vista,REXALL,,grocery,,C-1725 WALKLEY OTTAWA,45.3778586,-75.6459656,,
alta-vista,Alta Vista,REXALL,,grocery,,2269 RIVERSIDE DRIVE,45.385712,-75.6782489,,
alta-vista,Alta Vista,REXALL DRUGSTORE,,grocery,,1910 ST. LAURENT BOULEVARD,45.3994126,-75.6238443,,
alta-vista,Alta Vista,SHAFIE FOOD CENTER CONVENIENCE STORE,,grocery,,1785 FROBISHER LN,45.4013492,-75.665472,,
alta-vista,Alta Vista,SHAS PHARMACY,,grocery,,1428 WALKLEY RD,45.3735144,-75.6534727,,
alta-vista,Alta Vista,SHOPPERS DRUG MART,,grocery,,1180 WALKLEY RD,45.3700739,-75.6639372,,
alta-vista,Alta Vista,SHOPPERS DRUG MART,,grocery,,1559 ALTA VISTA DR,45.4087609,-75.6571787,,
alta-vista,Alta Vista,SHOPPERS DRUG MART,,grocery,,1582 BANK STREET,45.3792517,-75.6688792,,
alta-vista,Alta Vista,SHOPPERS DRUG MART,,grocery,,2515 BANK ST,45.3542812,-75.6459712,,
alta-vista,Alta Vista,SHUN FAT HING GROCERY,,grocery,,1179 PARISIEN ST,45.4192245,-75.6274902,,
alta-vista,Alta Vista,SMART SUPER CONVENIENCE INC.,,grocery,,1755 FROBISHER LN,45.4020188,-75.6652717,,
alta-vista,Alta Vista,SMYTH MEDICAL PHARMACY,,grocery,,1929 RUSSELL,45.4017087,-75.6250141,,
alta-vista,Alta Vista,SULTAN SUPERMARKET AND MEAT SHOP,,grocery,,2446 BANK ST,45.3528026,-75.6464531,,
alta-vista,Alta Vista,WALMART,,grocery,,2277 RIVERSIDE DR,45.3855413,-75.6774625,,
alta-vista,Alta Vista,WALMART,,grocery,,2210 BANK STREET,45.3535021,-75.6434522,,
alta-vista,Alta Vista,WALMART,,grocery,,450 TERMINAL AVE,45.4131465,-75.6496399,,
alta-vista,Alta Vista,YOUR INDEPENDENT GROCER - RILEY'S,,grocery,,2269 RIVERSIDE DR,45.3857215,-75.6783285,,
alta-vista,Alta Vista,YOUR INDEPENDENT GROCER - WILSON'S,,grocery,,2681 ALTA VISTA DR,45.3722133,-75.6630484,,
sandy-hill,Sandy Hill,ADONIS,,grocery,,1055 ST. LAURENT BLVD,45.427054,-75.6383701,,
sandy-hill,Sandy Hill,CANADIAN TIRE,,grocery,,330 COVENTRY RD,45.4200357,-75.650735,,
sandy-hill,Sandy Hill,CIRCLE K,,grocery,,210 LAURIER AVENUE EAST,45.4256518,-75.6817806,,
sandy-hill,Sandy Hill,CIRCLE K,,grocery,,120 OSGOODE STREET,45.4237455,-75.6809046,,
sandy-hill,Sandy Hill,DOLLAR TREE,,grocery,,1021 CYRVILLE RD,45.4257875,-75.6359037,,
sandy-hill,Sandy Hill,DOLLARAMA,,grocery,,1239 DONALD ST,45.4295001,-75.6398084,,
sandy-hill,Sandy Hill,DOLLARAMA,,grocery,,584 MONTREAL ROAD,45.4418962,-75.6434161,,
sandy-hill,Sandy Hill,DOLLARAMA,,grocery,,1200 ST. LAURENT BOULEVARD,45.4219466,-75.6387057,,
sandy-hill,Sandy Hill,DOLLARAMA,,grocery,,1980 OGILVIE RD,45.4244368,-75.636078,,
sandy-hill,Sandy Hill,EAST AFRICA FOOD MARKET,,grocery,,536 MONTR&#207;&#191;&#189;AL RD,45.4407379,-75.6455913,,
sandy-hill,Sandy Hill,FARM BOY,,grocery,,50 RIDEAU STREET,45.4252795,-75.6929819,,
sandy-hill,Sandy Hill,FOOD BASICS,,grocery,,1021 CYRVILLE RD,45.4257875,-75.6359037,,
sandy-hill,Sandy Hill,GIANT TIGER,,grocery,,1021 ST LAURENT BLVD,45.4284564,-75.6379081,,
sandy-hill,Sandy Hill,GUARDIAN HILLSIDE PHARMACY,,grocery,,556 MONTREAL RD,45.4410855,-75.6449359,,
sandy-hill,Sandy Hill,HASTY MARKET,,grocery,,596 RIDEAU ST,45.4329124,-75.6754193,,
sandy-hill,Sandy Hill,MAC'S SUSHI,,grocery,,1200 ST LAURENT BLVD,45.4219466,-75.6387057,,
sandy-hill,Sandy Hill,NEW QUILL CONVENIENCE STORE,,grocery,,6 QUILL ST,45.4265898,-75.6578544,,
sandy-hill,Sandy Hill,PETRO CANADA,,grocery,,292 RIDEAU STREET,45.4286644,-75.6852652,,
sandy-hill,Sandy Hill,PETRO CANADA,,grocery,,1018 CYRVILLE RD,45.4252844,-75.6374316,,
sandy-hill,Sandy Hill,PETRO CANADA - SUPERSTOP,,grocery,,1007 ST. LAURENT BOULEVARD,45.42836,-75.6391918,,
sandy-hill,Sandy Hill,QUICK STOP CONVENIENCE STORE,,grocery,,431 DONALD ST,45.4285013,-75.64915,,
sandy-hill,Sandy Hill,QUICKIE CONVENIENCE STORE,,grocery,,490 RIDEAU STREET,45.4313639,-75.6789635,,
sandy-hill,Sandy Hill,QUICKIE CONVENIENCE STORES,,grocery,,287 SOMERSET STREET EAST,45.4237649,-75.6766297,,
sandy-hill,Sandy Hill,SAAB GAS,,grocery,,1057 CYRVILLE RD,45.4250943,-75.6355208,,
sandy-hill,Sandy Hill,SHOPPERS DRUG MART,,grocery,,50 RIDEAU STREET,45.4252741,-75.6929843,,
sandy-hill,Sandy Hill,SHOPPERS DRUG MART,,grocery,,322 RIDEAU STREET,45.4288897,-75.6847071,,
sandy-hill,Sandy Hill,SHOPPERS DRUG MART,,grocery,,1200 ST. LAURENT BOULEVARD,45.4250644,-75.6383532,,
sandy-hill,Sandy Hill,SILVER CITY FOOD MARKET,,grocery,,289 QUEEN MARY ST,45.4252801,-75.6530463,,
sandy-hill,Sandy Hill,XTR CONVENIENCE STORE,,grocery,,455 DONALD ST,45.4287089,-75.6480297,,
sandy-hill,Sandy Hill,YOUR INDEPENDENT GROCER,,grocery,,596 MONTREAL RD,45.4409952,-75.6437735,,
orleans,Orleans,BULK BARN,,grocery,,2020 LANTHIER DR,45.4582181,-75.4930905,,
orleans,Orleans,CANADIAN TIRE GAS,,grocery,,1775 TENTH LINE RD,45.4808144,-75.4991239,,
orleans,Orleans,CIRCLE K,,grocery,,1985 TRIM RD,45.4711577,-75.4539463,,
orleans,Orleans,CIRCLE K,,grocery,,2302 TENTH LINE RD,45.4507803,-75.4830486,,
orleans,Orleans,CIRCLE K,,grocery,,1600 FOREST VALLEY DR,45.4488944,-75.5359865,,
orleans,Orleans,CIRCLE K,,grocery,,3869 INNES RD,45.4660703,-75.4706941,,
orleans,Orleans,CIRCLE K,,grocery,,2302 TENTH LINE RD,45.450787,-75.4830632,,
orleans,Orleans,CIRCLE K,,grocery,,385 TOMPKINS AVE,45.4772338,-75.4977959,,
orleans,Orleans,DESI-FOOD MARKET,,grocery,,2580 ST. JOSEPH BOULEVARD,45.4706222,-75.5251418,,
orleans,Orleans,DOLLAR TREE,,grocery,,3722 INNES RD,45.4496516,-75.5170968,,
orleans,Orleans,DOLLARAMA,,grocery,,2020 MER BLUE RD,45.4527792,-75.5038706,,
orleans,Orleans,DOLLARAMA,,grocery,,1777 TENTH LINE RD,45.4665388,-75.4894896,,
orleans,Orleans,DOLLARAMA,,grocery,,110 PLACE D&#39;ORLEANS DR,45.4781702,-75.5155527,,
orleans,Orleans,DOLLARAMA,,grocery,,6505 JEANNE D&#39;ARC BOULEVARD,45.4799355,-75.5369293,,
orleans,Orleans,DOLLARAMA,,grocery,,1226 PLACE D&#39;ORLEANS DR,45.4766215,-75.5228413,,
orleans,Orleans,DOLLARAMA,,grocery,,1615 ORLEANS BOULEVARD,45.4596014,-75.5241362,,
orleans,Orleans,DOLLARAMA,,grocery,,2276 TENTH LINE RD,45.4516009,-75.4840336,,
orleans,Orleans,FARM BOY,,grocery,,2030 TENTH LINE RD,45.4584073,-75.4877257,,
orleans,Orleans,FARM BOY,,grocery,,3035 ST JOSEPH BLVD,45.4776536,-75.5132978,,
orleans,Orleans,FETCH LOCAL MARKET,,grocery,,245 CENTRUM BLVD,45.4806423,-75.5113908,,
orleans,Orleans,FOOD BASICS,,grocery,,3712 INNES RD,45.4497538,-75.5172222,,
orleans,Orleans,FRESHCO,,grocery,,920 WATTERS RD,45.48287,-75.47484,,
orleans,Orleans,GIANT TIGER,,grocery,,2396 ST. JOSEPH BOULEVARD,45.4688827,-75.5289403,,
orleans,Orleans,GIANT TIGER,,grocery,,915 WATTERS RD,45.4837169,-75.4755716,,
orleans,Orleans,ISTANBUL FOOD MART,,grocery,,375 DES &#207;&#191;&#189;PINETTES AVE,45.4661877,-75.4957745,,
orleans,Orleans,MAC'S SUSHI,,grocery,,110 PLACE D&#39;ORL&#207;&#191;&#189;ANS DR,45.4781702,-75.5155527,,
orleans,Orleans,MAGGY'S MART,,grocery,,8154 JEANNE D&#39;ARC BOULEVARD,45.4875472,-75.5116649,,
orleans,Orleans,MISS GAS BAR,,grocery,,4042 INNES RD,45.4550482,-75.5050546,,
orleans,Orleans,MOBIL AT SUPERSTORE,,grocery,,4270 INNES RD,45.4571245,-75.4952251,,
orleans,Orleans,NEHLES MEAT GROCERY AND BBQ SHOP,,grocery,,2226 LANTHIER DR,45.4569725,-75.4923059,,
orleans,Orleans,NO FRILLS,,grocery,,1226 PLACE D&#39;ORLEANS DRIVE,45.4766215,-75.5228413,,
orleans,Orleans,PETRO CANADA,,grocery,,1685 TENTH LINE RD,45.4679155,-75.4918465,,
orleans,Orleans,PETRO CANADA,,grocery,,3055 ST. JOSEPH BOULEVARD,45.4783429,-75.5124856,,
orleans,Orleans,PETRO CANADA,,grocery,,4358 INNES RD,45.4594,-75.4911803,,
orleans,Orleans,PETRO CANADA - NEIGHBOURS COFFEE,,grocery,,1988 ST. JOSEPH BOULEVARD,45.4641716,-75.5392912,,
orleans,Orleans,PHARMACIE BEAUSEJOUR,,grocery,,1220 PLACE D&#39;ORLEANS DR,45.4768188,-75.5205429,,
orleans,Orleans,PHARMACIE JEAN-COUTU,,grocery,,2701 ST. JOSEPH BOULEVARD,45.4724086,-75.5236039,,
orleans,Orleans,PRONTO FOOD MARTS,,grocery,,3469 INNES RD,45.4470686,-75.5272507,,
orleans,Orleans,QUICKIE CONVENIENCE STORES,,grocery,,915 WATTERS RD,45.4837169,-75.4755716,,
orleans,Orleans,REAL CANADIAN SUPERSTORE,,grocery,,4270 INNES RD,45.4571245,-75.4952251,,
orleans,Orleans,REXALL,,grocery,,110 PLACE D&#39;ORLEANS DR,45.4785994,-75.5151663,,
orleans,Orleans,REXALL-PHARMA PLUS,,grocery,,1615 ORLEANS BOULEVARD,45.4596014,-75.5241362,,
orleans,Orleans,RHEMA'S MARKET,,grocery,,4380 INNES RD,45.4599028,-75.4901508,,
orleans,Orleans,SHOPPERS DRUG MART,,grocery,,6473 JEANNE D&#39;ARC BOULEVARD,45.47999,-75.536203,,
orleans,Orleans,SHOPPERS DRUG MART,,grocery,,1675 TENTH LINE RD,45.4808144,-75.4991239,,
orleans,Orleans,SHOPPERS DRUG MART,,grocery,,1937 PORTOBELLO BOULEVARD,45.4680794,-75.4658681,,
orleans,Orleans,SHOPPERS DRUG MART,,grocery,,2954 ST JOSEPH BLVD,45.4750981,-75.5164844,,
orleans,Orleans,SHOPPERS DRUG MART,,grocery,,2301 TENTH LINE RD,45.4513667,-75.4814737,,
orleans,Orleans,SHOPPERS DRUG MART,,grocery,,3940 INNES RD,45.4539941,-75.5088302,,
orleans,Orleans,SOBEYS,,grocery,,5150 INNES RD,45.4693494,-75.4560411,,
orleans,Orleans,SOBEYS,,grocery,,5150 INNES RD,45.4693494,-75.4560411,,
orleans,Orleans,SOBEYS ORLEANS,,grocery,,2276 TENTH LINE RD,45.4518215,-75.4828122,,
orleans,Orleans,WALMART,,grocery,,3900 INNES RD,45.4527722,-75.507302,,
barrhaven,Barrhaven,A2Z CORNER,,grocery,,605 LONGFIELDS DR,45.2856286,-75.7436732,,
barrhaven,Barrhaven,ALADDIN GROCERY AND MEAT SHOP,,grocery,,3023 CEDARVIEW RD,45.2660293,-75.7713905,,
barrhaven,Barrhaven,BANAUE SARI-SARI STORE,,grocery,,3023 CEDARVIEW RD,45.2662729,-75.7716559,,
barrhaven,Barrhaven,BULK BARN,,grocery,,3161 GREENBANK RD,45.2695671,-75.7453866,,
barrhaven,Barrhaven,CANADIAN TIRE,,grocery,,2501 GREENBANK RD,45.2706289,-75.7463559,,
barrhaven,Barrhaven,CANADIAN TIRE GAS BAR,,grocery,,2501 GREENBANK RD,45.272268,-75.7457082,,
barrhaven,Barrhaven,CIRCLE K,,grocery,,3580 STRANDHERD DR,45.2747392,-75.7384157,,
barrhaven,Barrhaven,COSTCO,,grocery,,4315 STRANDHERD DR,45.2688881,-75.7842675,,
barrhaven,Barrhaven,DOLLARAMA,,grocery,,3777 STRANDHERD DR,45.2681524,-75.7466046,,
barrhaven,Barrhaven,FARM BOY GREENBANK,,grocery,,1581 GREENBANK RD,45.2739725,-75.7470017,,
barrhaven,Barrhaven,FOOD BASICS,,grocery,,900 GREENBANK RD,45.2847252,-75.7564963,,
barrhaven,Barrhaven,LOBLAWS,,grocery,,3201 GREENBANK RD,45.2679847,-75.7435981,,
barrhaven,Barrhaven,METRO,,grocery,,3201 STRANDHERD DR,45.2745094,-75.7213031,,
barrhaven,Barrhaven,METRO-FOODBASICS,,grocery,,3831 CAMBRIAN RD,45.2484199,-75.7462999,,
barrhaven,Barrhaven,PETRO CANADA,,grocery,,3766 FALLOWFIELD RD,45.2875882,-75.7571643,,
barrhaven,Barrhaven,PETRO CANADA,,grocery,,3775 STRANDHERD DR,45.2688673,-75.7495863,,
barrhaven,Barrhaven,PETRO CANADA,,grocery,,3300 WOODROFFE AVE,45.2760019,-75.7195033,,
barrhaven,Barrhaven,QUICKIE CONVENIENCE STORES,,grocery,,2201 JOCKVALE RD,45.2758212,-75.7773042,,
barrhaven,Barrhaven,REXALL,,grocery,,900 GREENBANK RD,45.2847252,-75.7564963,,
barrhaven,Barrhaven,SHOPPERS DRUG MART,,grocery,,3151 STRANDHERD DR,45.2753291,-75.7200881,,
barrhaven,Barrhaven,SHOPPERS DRUG MART,,grocery,,3781 STRANDHERD DR,45.2682208,-75.7512618,,
barrhaven,Barrhaven,ST MOTHER TERESA (TUCK SHOP),,grocery,,440 LONGFIELDS DR,45.284036,-75.745116,,
barrhaven,Barrhaven,STRANDHERD GUARDIAN PHARMACY,,grocery,,4100 STRANDHERD DR,45.2603845,-75.7684158,,
barrhaven,Barrhaven,THAT CORNER STORE,,grocery,,3812 GREENBANK RD,45.2428942,-75.7301019,,
barrhaven,Barrhaven,TIA MART,,grocery,,3570 STRANDHERD DR,45.2751492,-75.7375557,,
barrhaven,Barrhaven,WALMART,,grocery,,3651 STRANDHERD DR,45.2718267,-75.7408564,,
bayshore,Bayshore,AMBLESIDE TUCK SHOP,,grocery,,1081 AMBLESIDE DR,45.3736078,-75.781158,,
bayshore,Bayshore,AR FOODMART,,grocery,,2914 CARLING AVE,45.3566152,-75.8008187,,
bayshore,Bayshore,BULK BARN,,grocery,,2148 CARLING AVE,45.3694167,-75.7687714,,
bayshore,Bayshore,DAMAS SUPERMARKET,,grocery,,3033 CARLING AVE,45.3550822,-75.8063329,,
bayshore,Bayshore,FARM BOY,,grocery,,1495 RICHMOND ROAD,45.362791,-75.7912934,,
bayshore,Bayshore,HASTY MARKET,,grocery,,2361 CARLING AVE,45.367192,-75.7790651,,
bayshore,Bayshore,MAC'S SUSHI,,grocery,,100 BAYSHORE DR,45.3469493,-75.8065581,,
bayshore,Bayshore,MACEWEN PETROLEUM,,grocery,,3420 CARLING AVE,45.352054,-75.8356299,,
bayshore,Bayshore,MANILA MART,,grocery,,2924 CARLING AVE,45.3565119,-75.8012461,,
bayshore,Bayshore,METRO,,grocery,,2525 CARLING AVE,45.364982,-75.7857631,,
bayshore,Bayshore,PETRO CANADA - NEIGHBOURS COFFEE,,grocery,,3095 CARLING AVE,45.3532242,-75.8095591,,
bayshore,Bayshore,QUICKIE CONVENIENCE STORES,,grocery,,1386 RICHMOND RD,45.3651059,-75.7877922,,
bayshore,Bayshore,QUICKIE CONVENIENCE STORES,,grocery,,361 POULIN AVE,45.3630049,-75.7917297,,
bayshore,Bayshore,QUICKIE CONVENIENCE STORES,,grocery,,2 GOLDRIDGE DR,45.3651412,-75.7878017,,
bayshore,Bayshore,REXALL PHARMA PLUS,,grocery,,2525 CARLING AVE,45.3650586,-75.7859973,,
bayshore,Bayshore,SHOPPERS DRUG MART,,grocery,,1460 RICHMOND RD,45.3629179,-75.7902315,,
bayshore,Bayshore,SHOPPERS DRUG MART,,grocery,,3080 CARLING AVE,45.3548299,-75.8044881,,
bayshore,Bayshore,SOUTH ASIAN SUPERMARKET,,grocery,,3059 CARLING AVE,45.3544377,-75.8072934,,
bayshore,Bayshore,UNCLE ALI'S SUPERMARKET,,grocery,,3059 CARLING AVE,45.3543897,-75.8071823,,
bayshore,Bayshore,WALMART,,grocery,,100 BAYSHORE DR,45.3469493,-75.8065581,,
bells-corners,Bells Corners,BELL'S CORNER MINI MART,,grocery,,2072 ROBERTSON RD,45.322444,-75.8313318,,
bells-corners,Bells Corners,CANADIAN TIRE,,grocery,,2135 ROBERTSON ROAD,45.3224828,-75.8359127,,
bells-corners,Bells Corners,CANADIAN TIRE GAS,,grocery,,2135 ROBERTSON ROAD,45.3224828,-75.8359127,,
bells-corners,Bells Corners,CIRCLE K,,grocery,,418 MOODIE DR,45.3208341,-75.8331709,,
bells-corners,Bells Corners,DOLLARAMA,,grocery,,2150 ROBERTSON RD,45.3199752,-75.8374097,,
bells-corners,Bells Corners,DOLLARAMA,,grocery,,2946 BASELINE RD,45.3350419,-75.7994166,,
bells-corners,Bells Corners,ESSO,,grocery,,1856 ROBERTSON RD,45.3271357,-75.819751,,
bells-corners,Bells Corners,FRESHCO,,grocery,,2150 ROBERTSON RD,45.3197692,-75.8364153,,
bells-corners,Bells Corners,GIANT TIGER,,grocery,,1861 ROBERTSON,45.3280723,-75.820536,,
bells-corners,Bells Corners,KFRESH AFRO-CARIBBEAN SUPERMARKET AND TAKEOUT,,grocery,,2090 ROBERTSON RD,45.3219535,-75.8324033,,
bells-corners,Bells Corners,LOBLAWS,,grocery,,2065 ROBERTSON RD,45.3242684,-75.8330906,,
bells-corners,Bells Corners,METRO,,grocery,,1811 ROBERTSON RD,45.3302476,-75.8171021,,
bells-corners,Bells Corners,PETRO CANADA,,grocery,,1881 ROBERTSON ROAD,45.3272944,-75.8215401,,
bells-corners,Bells Corners,REXALL,,grocery,,2144 ROBERTSON RD,45.320743,-75.8358229,,
bells-corners,Bells Corners,SHOPPERS DRUG MART,,grocery,,1821 ROBERTSON ROAD,45.329103,-75.8192172,,
carlington,Carlington,BULK BARN,,grocery,,1465 MERIVALE RD,45.3610055,-75.7346901,,
carlington,Carlington,CIRCLE K,,grocery,,1025 MERIVALE RD,45.3789535,-75.7329041,,
carlington,Carlington,DOLLAR TREE,,grocery,,1460 MERIVALE RD,45.3619299,-75.7353516,,
carlington,Carlington,DOLLAR'S VARIETY MART,,grocery,,1309 CARLING AVE,45.3867616,-75.7342061,,
carlington,Carlington,DUTCH GROCERIES,,grocery,,1400 CLYDE AVE,45.3583259,-75.7389182,,
carlington,Carlington,FOOD BASICS,,grocery,,1465 MERIVALE RD,45.3608084,-75.7336794,,
carlington,Carlington,FRESHCO,,grocery,,1595 MERIVALE RD,45.3537401,-75.7331884,,
carlington,Carlington,GIANT TIGER,,grocery,,1512 MERIVALE RD,45.3567334,-75.7378655,,
carlington,Carlington,HASTY MARKET,,grocery,,1896 PRINCE OF WALES DR,45.3537232,-75.704817,,
carlington,Carlington,KARDISH BULK FOOD AND NUTRITION,,grocery,,1309 CARLING AVE,45.387597,-75.7342256,,
carlington,Carlington,KING'S CONFECTIONERY,,grocery,,1224 SHILLINGTON AVE,45.3806314,-75.7283501,,
carlington,Carlington,LOBLAWS,,grocery,,1460 MERIVALE RD,45.3619299,-75.7353518,,
carlington,Carlington,M&J TROPICAL SUPERMARKET,,grocery,,1383 CLYDE AVE,45.3597207,-75.738109,,
carlington,Carlington,MAGIC EXPRESS SUPERMARKET,,grocery,,1014 MERIVALE,45.3794717,-75.7335876,,
carlington,Carlington,MARINA PHARMACY,,grocery,,1568 MERIVALE RD,45.3513546,-75.7344788,,
carlington,Carlington,MF FOOD MART,,grocery,,848 MERIVALE RD,45.385366,-75.7326505,,
carlington,Carlington,OK MART/ RODEM NAMU/ CHOI'S FOODS,,grocery,,1508 MERIVALE RD,45.3567334,-75.7378655,,
carlington,Carlington,PETRO CANADA,,grocery,,1900 PRINCE OF WALES DR,45.3531179,-75.7046464,,
carlington,Carlington,PETRO CANADA,,grocery,,1432 BASELINE RD,45.361241,-75.739025,,
carlington,Carlington,PETRO CANADA - SUPERSTOP,,grocery,,1431 WOODROFFE AVE,45.3426412,-75.7563932,,
carlington,Carlington,QUICKIE CONVENIENCE STORES,,grocery,,1435 CALDWELL AVE,45.3728197,-75.7348924,,
carlington,Carlington,SHEGER ADDIS GROCERY,,grocery,,1234 MERIVALE OTTAWA,45.3705581,-75.7332869,,
carlington,Carlington,SHOPPERS DRUG MART,,grocery,,888 MEADOWLANDS DR E,45.3671249,-75.7025045,,
carlington,Carlington,SHOPPERS DRUG MART,,grocery,,1309 CARLING AVE,45.3867692,-75.7355233,,
carlington,Carlington,SHOPPERS DRUG MART,,grocery,,2148 CARLING AVE,45.3799385,-75.7480546,,
carlington,Carlington,SILVER HAWK TUCK SHOP,,grocery,,1170 FISHER AVE,45.3768531,-75.7208795,,
carlington,Carlington,TAYBA MART,,grocery,,1558 MERIVALE RD,45.3528521,-75.7354311,,
carlington,Carlington,THE INDIAN SUPERMARKET,,grocery,,6-1547 MERIVALE RD,45.3548161,-75.7337381,,
carlington,Carlington,WALMART,,grocery,,1375 BASELINE RD,45.3638026,-75.7381945,,
carlington,Carlington,WISSAM FRUITS,,grocery,,888 MEADOWLANDS DR,45.3671249,-75.7025045,,
hunt-club,Hunt Club,AFRICAN QUEEN SUPERMARKET,,grocery,,2430 BANK ST,45.353268,-75.64878,,
hunt-club,Hunt Club,BULK BARN,,grocery,,2210 BANK ST,45.3556337,-75.6546138,,
hunt-club,Hunt Club,CIRCLE K,,grocery,,2100 HUNT CLUB RD,45.3640885,-75.6201797,,
hunt-club,Hunt Club,DOLLAR TREE,,grocery,,2950 BANK ST,45.3459818,-75.6267278,,
hunt-club,Hunt Club,DOLLARAMA,,grocery,,1009 DAZ&#207;&#191;&#189; ST,45.3538958,-75.651747,,
hunt-club,Hunt Club,DOLLARAMA,,grocery,,565 HUNT CLUB RD,45.3386272,-75.6832979,,
hunt-club,Hunt Club,EASY DAY CONVENIENCE,,grocery,,3500 HAWTHORNE RD,45.3740618,-75.5973799,,
hunt-club,Hunt Club,ESSO - TIGER EXPRESS,,grocery,,3705 RIVERSIDE DR,45.342702,-75.690557,,
hunt-club,Hunt Club,FARM BOY,,grocery,,2950 BANK ST,45.3459818,-75.6267278,,
hunt-club,Hunt Club,GO NUTS,,grocery,,1009 DAZ&#207;&#191;&#189; ST,45.3538958,-75.651747,,
hunt-club,Hunt Club,LOBLAWS,,grocery,,2210 BANK STREET,45.3556337,-75.6546138,,
hunt-club,Hunt Club,OZZY FOOD MARKET,,grocery,,3867 ALBION RD,45.343278,-75.6365584,,
hunt-club,Hunt Club,PETRO CANADA,,grocery,,2536 BANK ST,45.3537108,-75.6421796,,
hunt-club,Hunt Club,PETRO CANADA,,grocery,,690 HUNT CLUB RD,45.3429186,-75.6684964,,
hunt-club,Hunt Club,PETRO CANADA,,grocery,,3201 CONROY ROAD,45.3738805,-75.6239854,,
hunt-club,Hunt Club,QUICKIE CONVENIENCE STORES,,grocery,,3332 MCCARTHY RD,45.3508654,-75.6702835,,
hunt-club,Hunt Club,QUICKIE CONVENIENCE STORES,,grocery,,4 LORRY GREENBERG DRIVE,45.3691281,-75.6209221,,
hunt-club,Hunt Club,QUICKIE CONVENIENCE STORES,,grocery,,1661 HUNT CLUB RD,45.3603489,-75.6314642,,
hunt-club,Hunt Club,SHOPPERS DRUG MART,,grocery,,3310 MCCARTHY RD,45.3509205,-75.6715479,,
hunt-club,Hunt Club,SUPER CONVENIENCE MART,,grocery,,25 TAPIOLA CRESCENT,45.3639971,-75.6466353,,
hunt-club,Hunt Club,UPLAND HEIGHTS GROCERY,,grocery,,3360 PAUL ANKA DR,45.3496175,-75.6748601,,
hunt-club,Hunt Club,WALMART,,grocery,,2210 BANK STREET,45.3556337,-75.6546138,,
riverside-south,Riverside South,BRIERLEY'S YOUR INDEPENDANT GROCER,,grocery,,671 RIVER RD,45.2708593,-75.6990013,,
riverside-south,Riverside South,CIRCLE K CONVENIENCE STORE,,grocery,,4184 SPRATT RD,45.2833093,-75.6858937,,
riverside-south,Riverside South,FARM BOY,,grocery,,3033 WOODROFFE AVE,45.2881771,-75.7251596,,
riverside-south,Riverside South,FRESHCO,,grocery,,350 CRESTHAVEN DR,45.2739202,-75.7099862,,
riverside-south,Riverside South,GOOD HEALTH PHARMACY,,grocery,,4188 SPRATT RD,45.2832025,-75.6862356,,
riverside-south,Riverside South,M&M FOOD MARKET,,grocery,,4456 LIMEBANK ROAD,45.2871182,-75.672203,,
riverside-south,Riverside South,MACEWEN PETROLEUM,,grocery,,685 RIVER RD,45.2702097,-75.698177,,
riverside-south,Riverside South,QUICKIE CONVENIENCE STORES,,grocery,,1 RIDEAUCREST DR,45.2848213,-75.7225639,,
manotick,Manotick,BAKKER'S GENERAL STORE,,grocery,,1004 MANOTICK STATION RD,45.255696,-75.624512,,
manotick,Manotick,DISCOUNT TOBACCO & GROCERY,,grocery,,5646 MANOTICK MAIN ST,45.2201635,-75.6768404,,
manotick,Manotick,DRUMMOND GAS-MANOTICK,,grocery,,5220 MITCH OWENS RD,45.2339116,-75.6759527,,
manotick,Manotick,GIANT TIGER,,grocery,,1168 MAPLE ST,45.2248015,-75.68698,,
manotick,Manotick,REXALL PHARMACY,,grocery,,1160 BEAVERWOOD RD,45.223509,-75.6846823,,
manotick,Manotick,YOUR INDEPENDENT GROCER - MCDONOUGH'S,,grocery,,1160 1160 BEAVERWOOD RD,45.2229879,-75.6823237,,
manotick,Manotick,YOUR INDEPENDENT GROCER - ROBINSON'S,,grocery,,1160 BEAVERWOOD RD,45.223509,-75.6846823,,
vars,Vars-Navan,CARLSBAD VARIETY STORE,,grocery,,6500 RUSSELL RD,45.3689882,-75.4556709,,
vars,Vars-Navan,J.T.BRADLEY CONVENIENCE,,grocery,,1220 COLONIAL RD,45.4460975,-75.3271851,,
vars,Vars-Navan,MIDORI  MARKET SARSFIELD,,grocery,,2950 COLONIAL RD,45.4423267,-75.343332,,
vars,Vars-Navan,ORIGINAL NAVAN MARKET,,grocery,,1279 COLONIAL RD,45.42002,-75.42131,,
vars,Vars-Navan,PETRO CANADA,,grocery,,5329 BOUNDARY RD,45.3443303,-75.4369499,,
vars,Vars-Navan,PETRO CANADA,,grocery,,5336 BOUNDARY RD,45.3449535,-75.4436251,,
vars,Vars-Navan,RENE'S CORNER,,grocery,,4490 ANDERSON RD,45.3423997,-75.5249528,,
vars,Vars-Navan,WOLF'S GENERAL MERCANTILE,,grocery,,8651 MITCH OWENS RD,45.3161613,-75.4837354,,
carp,Carp,CARP FOODLINER,,grocery,,3744 CARP RD,45.3448807,-76.0359758,,
constance-bay,Constance Bay,CONSTANCE BAY GENERAL STORE,,grocery,,115 CONSTANCE BAY RD,45.486479,-76.0736062,,
constance-bay,Constance Bay,FITZROY PROVINCIAL PARK FOOD SHOP,,grocery,,5201 CANON SMITH DR,45.483054,-76.2184575,,
constance-bay,Constance Bay,THE LIGHTHOUSE RESTAURANT AND GROCERY,,grocery,,655 BAYVIEW DR,45.5092334,-76.0947644,,
richmond,Richmond,CIRCLE K CONVENIENCE STORE,,grocery,,6138 PERTH ST,45.1938724,-75.8389807,,
richmond,Richmond,DRUMMONDS FUELS(OTTAWA) LTD.,,grocery,,5789 PERTH ST,45.2046248,-75.8225595,,
richmond,Richmond,KING'S YOUR INDEPENDANT GROCER,,grocery,,5911 PERTH ST,45.2032116,-75.8290665,,
richmond,Richmond,MACEWEN PETROLEUM,,grocery,,5925 PERTH ST,45.2007119,-75.8294839,,
richmond,Richmond,MACEWEN PETROLEUM,,grocery,,4564 FALLOWFIELD RD,45.2689656,-75.8018053,,
richmond,Richmond,PETRO CANADA,,grocery,,3320 FALLOWFIELD RD,45.2514062,-75.8481926,,
metcalfe,Metcalfe-Osgoode,CIRCLE K - MAC'S CONVENIENCE STORES,,grocery,,5511 MANOTICK MAIN ST,45.1446513,-75.6098926,,
metcalfe,Metcalfe-Osgoode,MACEWEN PETROLEUM,,grocery,,5026 BANK ST,45.1458368,-75.4434499,,
metcalfe,Metcalfe-Osgoode,METCALFE VARIETY STORE,,grocery,,8196 VICTORIA ST,45.2349347,-75.4743956,,
metcalfe,Metcalfe-Osgoode,VERNON VARIETY,,grocery,,8717 BANK ST,45.1621223,-75.4624087,,
nepean,Nepean,BIG JOE'S CONVENIENCE/ MILANOS,,grocery,,2529 BASELINE RD,45.3423588,-75.7854815,,
nepean,Nepean,CIRCLE K,,grocery,,299 GREENBANK RD,45.3237882,-75.7773955,,
nepean,Nepean,ESSO - ON THE RUN,,grocery,,2545 BASELINE RD,45.3421276,-75.7863083,,
nepean,Nepean,IKEA CANADA LIMITED,,grocery,,2685 IRIS ST,45.3503254,-75.7849634,,
nepean,Nepean,IRIS FOOD MART,,grocery,,1121 COBDEN RD,45.352581,-75.777841,,
nepean,Nepean,METRO,,grocery,,250 GREENBANK ROAD,45.324716,-75.779813,,
nepean,Nepean,PETRO CANADA,,grocery,,2577 BASELINE ROAD,45.3414286,-75.7878838,,
nepean,Nepean,QUICKIE CONVENIENCE STORES,,grocery,,1 CHARTWELL AVE,45.3323407,-75.7701227,,
nepean,Nepean,SHOPPERS DRUG MART,,grocery,,181 GREENBANK ROAD,45.3282357,-75.7795568,,
merivale,Merivale,CIRCLE K/ TIM HORTANS,,grocery,,1545 WOODROFFE AVE,45.3344996,-75.7517885,,
merivale,Merivale,DESI PRICE CLUB,,grocery,,1950 MERIVALE RD,45.3470219,-75.7312908,,
merivale,Merivale,DOLLAR TREE,,grocery,,525 W HUNT CLUB RD,45.3348658,-75.7263278,,
merivale,Merivale,ESSO,,grocery,,1584 MERIVALE RD,45.3501849,-75.7336196,,
merivale,Merivale,ESSO - ON THE RUN,,grocery,,1545 WOODROFFE AVE,45.3345435,-75.7517142,,
merivale,Merivale,FARM BOY,,grocery,,1642 MERIVALE RD,45.3455841,-75.732034,,
merivale,Merivale,GREEN FRESH SUPERMARKET,,grocery,,1695 MERIVALE RD,45.3468634,-75.7291442,,
merivale,Merivale,NO FRILLS,,grocery,,200 GRANT CARMEN DR,45.351331,-75.7307124,,
merivale,Merivale,PROXI NEPEAN GAS STATION,,grocery,,1660 MERIVALE RD,45.3433874,-75.7296232,,
merivale,Merivale,SHOPPERS DRUG MART,,grocery,,1642 MERIVALE RD,45.3455841,-75.732034,,
merivale,Merivale,SUNMAX  SUPERMARKET,,grocery,,1119 MEADOWLANDS DR E,45.3629646,-75.7121133,,
merivale,Merivale,YOUR INDEPENDENT GROCER,,grocery,,200 GRANT CARMAN DR,45.351331,-75.7307124,,
vanier,Vanier,CIRCLE K,,grocery,,313 MCARTHUR AVE,45.4319287,-75.6550232,,
vanier,Vanier,CIRCLE K - SHELL,,grocery,,1 MONTREAL ROAD,45.4332134,-75.6697547,,
vanier,Vanier,ESSO - CIRCLE K,,grocery,,395 MONTREAL RD,45.4390492,-75.6540399,,
vanier,Vanier,ESSO - ON THE RUN/ CIRCLE K.,,grocery,,120 MONTREAL RD,45.4337202,-75.6659628,,
vanier,Vanier,FRESH GROCER,,grocery,,40 JOLLIET AVE,45.4431425,-75.6687168,,
vanier,Vanier,FRESHCO,,grocery,,320 MCARTHUR AVE,45.4314888,-75.6539056,,
vanier,Vanier,GREEN FRESH SUPERMARKET,,grocery,,175 MCARTHUR AVENUE,45.4320192,-75.6628052,,
vanier,Vanier,IBJ MARKET &MULTI-SERVICES,,grocery,,23 MONTR&#207;&#191;&#189;AL RD,45.4333274,-75.6690153,,
vanier,Vanier,J.M. GRACE FOOD MARKET INC,,grocery,,270 DUROCHER ST,45.4351514,-75.6653354,,
vanier,Vanier,JASMIN MARKET,,grocery,,335 LACASSE AVE,45.4344553,-75.6565371,,
vanier,Vanier,KABUL FOOD MARKET,,grocery,,355 MONTREAL RD,45.4387471,-75.6550568,,
vanier,Vanier,KANZENG GROUPE MARCHE TROPICAL,,grocery,,267 MONTREAL RD,45.4367749,-75.6604855,,
vanier,Vanier,LA PAIX PHARMACY,,grocery,,390 MCARTHUR AVE,45.43192,-75.6501902,,
vanier,Vanier,LOBLAWS,,grocery,,100 MCARTHUR AVENUE,45.4293341,-75.6648716,,
vanier,Vanier,MCARTHUR FOOD MART,,grocery,,300 MCARTHUR AVE,45.4314481,-75.6559184,,
vanier,Vanier,MCARTHUR HALAL MEAT & GROCERY,,grocery,,379 MCARTHUR AVE,45.4323187,-75.6505747,,
vanier,Vanier,METRO,,grocery,,50 BEECHWOOD AVENUE,45.4394956,-75.6756442,,
vanier,Vanier,MIN-A-MART,,grocery,,158 MCARTHUR AVE,45.4306719,-75.6632249,,
vanier,Vanier,MINI CONFECTIONERY,,grocery,,273 MONTFORT ST,45.4389471,-75.6615451,,
vanier,Vanier,NEW EDINBURGH PHARMACY,,grocery,,1 BEECHWOOD AVE,45.4385022,-75.677711,,
vanier,Vanier,PETRO CANADA,,grocery,,42 MONTREAL RD,45.4331463,-75.6683331,,
vanier,Vanier,QUICKIE CONVENIENCE STORES,,grocery,,64 BEECHWOOD AVE,45.4401226,-75.6749723,,
vanier,Vanier,SHOPPERS DRUG MART,,grocery,,150 MONTREAL RD,45.4343364,-75.6646177,,
vanier,Vanier,ST CHARLES FOOD MART,,grocery,,46 ST. CHARLES ST,45.4395935,-75.6722276,,
vanier,Vanier,STE ANNE CONVENIENCE,,grocery,,308 SHAKESPEARE ST,45.4395184,-75.6592304,,
vanier,Vanier,VANIER CONVENIENCE STORE,,grocery,,101 LAVERGNE ST,45.4431274,-75.6652425,,
vanier,Vanier,VANIER PHARMACY,,grocery,,355 MONTREAL ROAD,45.4387471,-75.6550568,,
new-edinburgh,New Edinburgh,BRITTANY VARIETY STORE,,grocery,,230 BRITTANY DRIVE,45.44566,-75.6479358,,
new-edinburgh,New Edinburgh,CIRCLE K,,grocery,,437 ST. LAURENT BOULEVARD,45.4473684,-75.6498646,,
new-edinburgh,New Edinburgh,CIRCLE K,,grocery,,598 MONTREAL ROAD,45.442849,-75.64196,,
new-edinburgh,New Edinburgh,FARM BOY,,grocery,,585 MONTREAL RD,45.4426485,-75.6444576,,
new-edinburgh,New Edinburgh,FARM BOY-SUPERMARKET,,grocery,,585 MONTREAL RD,45.4426485,-75.6444576,,
new-edinburgh,New Edinburgh,SHOPPERS DRUG MART,,grocery,,541 MONTREAL ROAD,45.4416498,-75.6461203,,
cyrville,Cyrville,FARM BOY,,grocery,,2370 WALKLEY RD,45.3901177,-75.6143602,,
cyrville,Cyrville,GIANT TIGER,,grocery,,2480 WALKLEY RD,45.3910584,-75.610644,,
cyrville,Cyrville,GIANT TIGER,,grocery,,2950 BANK ST,45.3910584,-75.610644,,
cyrville,Cyrville,GOLDEN HAIR & AFRO-CARIBBEAN GROCERIES,,grocery,,1737 ST. LAURENT BLVD,45.4054404,-75.6260717,,
cyrville,Cyrville,ORLEANS FRESH FRUIT,,grocery,,3150 HAWTHORNE RD,45.385374,-75.6043151,,
findlay-creek,Findlay Creek,BARADA MART,,grocery,,105 SHUTTLEWORTH DRIVE,45.318848,-75.591896,,
findlay-creek,Findlay Creek,DOLLARAMA,,grocery,,4750 BANK ST,45.3189534,-75.5956363,,
findlay-creek,Findlay Creek,FRESHCO,,grocery,,4750 BANK ST,45.3197999,-75.5933903,,
findlay-creek,Findlay Creek,SHOPPERS DRUG MART,,grocery,,4744 BANK ST,45.3198815,-75.5941342,,
findlay-creek,Findlay Creek,STINSON CONVENIENCE STORE,,grocery,,4727 BANK ST,45.3248668,-75.5958187,,
greely,Greely,DOLLARAMA,,grocery,,6045 BANK ST,45.2643375,-75.5558681,,
greely,Greely,GREELY CONVENIENCE STORE,,grocery,,1341 MEADOW,45.2654981,-75.5618728,,
north-gower,North Gower,MULLIGANS GROCERY,,grocery,,2321 ANDREW ST,45.132208,-75.71651,,
north-gower,North Gower,ULTRAMAR - ON THE RUN,,grocery,,1622 ROGER STEVENS DR,45.1555329,-75.6582067,,
dunrobin,Dunrobin,MACEWEN PETROLEUM,,grocery,,1794 DUNROBIN RD,45.3831274,-75.9694675,,
dunrobin,Dunrobin,NICHOLL'S ESSO CONVENIENCE,,grocery,,3798 DUNROBIN RD,45.462905,-76.073875,,
belair-heights,Bel Air Heights,CIRCLE K,,grocery,,1827 BASELINE RD,45.3547943,-75.7560522,,
cumberland,Cumberland,ROLLING HILLS CONVENIENCE,,grocery,,1566 CANAAN RD,45.519726,-75.33304,,
blackburn-hamlet,Blackburn Hamlet,DOLLARAMA,,grocery,,2640 INNES RD,45.4317884,-75.5629293,,
blackburn-hamlet,Blackburn Hamlet,PETRO CANADA,,grocery,,2630 INNES RD,45.4315201,-75.5640978,,
blackburn-hamlet,Blackburn Hamlet,SHOPPERS DRUG MART,,grocery,,2638 INNES RD,45.4311586,-75.5626076,,
gloucester,Gloucester,23549 TD OTTAWA MANNED MARKET,,grocery,,1595 TELESAT CT,45.4292858,-75.6051041,,
gloucester,Gloucester,AFC ZENSHI @ LOBLAWS #1051,,grocery,,1980 OGILVIE RD,45.4316114,-75.6108173,,
gloucester,Gloucester,BULK BARN,,grocery,,1980 OGILVIE RD,45.4325275,-75.6098258,,
gloucester,Gloucester,CANADIAN TIRE,,grocery,,2010 OGILVIE RD,45.435066,-75.606445,,
gloucester,Gloucester,CANADIAN TIRE GAS,,grocery,,2006 OGILVIE RD,45.435946,-75.6057919,,
gloucester,Gloucester,CIRCLE K,,grocery,,2063 MEADOWBROOK RD,45.4269622,-75.6009808,,
gloucester,Gloucester,CIRCLE K,,grocery,,2075 MONTREAL RD,45.4480174,-75.5939265,,
gloucester,Gloucester,COSTCO,,grocery,,1405 BLAIR TOWERS PL,45.4349421,-75.6034548,,
gloucester,Gloucester,CROSSWINDS GROCERY,,grocery,,641 BATHGATE DRIVE,45.4465282,-75.6241498,,
gloucester,Gloucester,FRESH GROCER,,grocery,,876 MONTREAL RD,45.4458631,-75.6301992,,
gloucester,Gloucester,ISTANBUL FOOD MART,,grocery,,2164 MONTR&#207;&#191;&#189;AL RD,45.448597,-75.5893834,,
gloucester,Gloucester,KOREMS FOODS &  VARIETY STORE,,grocery,,1724 MONTR&#207;&#191;&#189;AL RD,45.4457933,-75.6106935,,
gloucester,Gloucester,LOBLAWS,,grocery,,1980 OGILVIE RD,45.4344907,-75.6107361,,
gloucester,Gloucester,LUNAR SUPERMARKET & MEAT SHOP,,grocery,,1669 CYRVILLE RD,45.4182461,-75.6080142,,
gloucester,Gloucester,MADINA MEAT FOOD MARKET,,grocery,,1136 CADBORO RD,45.4310544,-75.6213466,,
gloucester,Gloucester,METRO,,grocery,,1930 MONTREAL RD,45.4454287,-75.5952339,,
gloucester,Gloucester,MOE'S CONVENIENCE STORE,,grocery,,1665 CYRVILLE RD,45.418213,-75.6081073,,
gloucester,Gloucester,MY FOOD MART,,grocery,,1730 MONTREAL RD,45.4456921,-75.6101624,,
gloucester,Gloucester,PETRO CANADA,,grocery,,1941 INNES RD,45.4193934,-75.5963035,,
gloucester,Gloucester,PETRO CANADA - NEIGHBOURS COFFEE,,grocery,,2180 MONTREAL RD,45.4497116,-75.5885987,,
gloucester,Gloucester,PRONTO FOOD MART,,grocery,,1-5350 CANOTEK RD,45.4539654,-75.5835535,,
gloucester,Gloucester,REXALL,,grocery,,1980 OGILVIE RD,45.4325275,-75.6098258,,
gloucester,Gloucester,SEAWAY GAS,,grocery,,1627 CYRVILLE RD,45.4186442,-75.610237,,
gloucester,Gloucester,SHOPPERS DRUG MART,,grocery,,2016 OGILVIE RD,45.4368389,-75.6040595,,
gloucester,Gloucester,SHOPPERS DRUG MART,,grocery,,2339 OGILVIE RD,45.4520463,-75.5979908,,
gloucester,Gloucester,STARBUCKS - LOBLAWS FOOD STORE,,grocery,,1980 OGILVIE RD,45.4325275,-75.6098258,,
gloucester,Gloucester,WALMART,,grocery,,1980 OGILVIE RD,45.4325275,-75.6098258,,
gloucester,Gloucester,WHOLE HEALTH-PHARMACY,,grocery,,1150  CADBORO RD,45.4307627,-75.6211603,,
